{"type":"FeatureCollection","features":[{"type":"Feature","geometry":{"type":"Point","coordinates":[115.8445612,-31.8214784]},"properties":{"name":"Congregation of Vietnamese Buddhists","tradition":"buddhist","country_code":"au"}},{"type":"Feature","geometry":{"type":"Point","coordinates":[144.9817524,-37.70997]},"properties":{"name":"Linh Son Buddhist Temple","tradition":"buddhist","country_code":"au"}},{"type":"Feature","geometry":{"type":"Point","coordinates":[115.8422884,-31.8869156]},"properties":{"name":"Dhammaloka -  Buddist Society of WA","tradition":"buddhist","addr:street":"Nanson Way","addr:housenumber":"18","country_code":"au"}},{"type":"Feature","geometry":{"type":"Point","coordinates":[149.1199148,-35.2440804]},"properties":{"name":"Wat Dhammadharo","tradition":"buddhist","addr:street":"Archibald Street","addr:housenumber":"80","country_code":"au"}},{"type":"Feature","geometry":{"type":"Point","coordinates":[149.1473681,-35.3397057]},"properties":{"name":"Buddhist Society of the ACT","tradition":"buddhist","country_code":"au"}},{"type":"Feature","geometry":{"type":"Point","coordinates":[145.3479571,-37.9076597]},"properties":{"name":"Tibetan Buddhist Rime Institute","tradition":"buddhist","addr:street":"Burwood Highway","addr:housenumber":"1584","addr:postcode":"3160","country_code":"au","website":"https://rimebuddhism.com/"}},{"type":"Feature","geometry":{"type":"Point","coordinates":[151.4762663,-33.1044154]},"properties":{"name":"Cham Shan Temple","tradition":"buddhist","country_code":"au"}},{"type":"Feature","geometry":{"type":"Point","coordinates":[150.9455978,-33.8863722]},"properties":{"name":"Australian Chinese Association Temple","tradition":"buddhist","country_code":"au"}},{"type":"Feature","geometry":{"type":"Point","coordinates":[145.1127904,-37.9572739]},"properties":{"name":"Bao Minh Buddhist Centre","tradition":"buddhist","country_code":"au"}},{"type":"Feature","geometry":{"type":"Point","coordinates":[153.0452901,-27.4401364]},"properties":{"name":"Quan Am Temple","tradition":"buddhist","country_code":"au"}},{"type":"Feature","geometry":{"type":"Point","coordinates":[151.0343847,-33.8706431]},"properties":{"name":"Lingyen Mountain Temple","tradition":"buddhist","country_code":"au","website":"https://www.buddhistcouncil.org/directory-member_organ/listing/ling-yen-mountain-temple-australia/"}},{"type":"Feature","geometry":{"type":"Point","coordinates":[145.391708,-37.7922876]},"properties":{"name":"Mahamevnawa Buddhist Meditation Centre","tradition":"buddhist","addr:street":"Monbulk Road","addr:housenumber":"71","addr:postcode":"3796","country_code":"au","phone":"+61 3 9736 3937","website":"https://mahamevnawa.org.au/"}},{"type":"Feature","geometry":{"type":"Point","coordinates":[144.8515446,-37.7742875]},"properties":{"name":"Quang Minh Buddhist Temple","tradition":"buddhist","denomination":"mahayana","country_code":"au"}},{"type":"Feature","geometry":{"type":"Point","coordinates":[150.3165563,-33.725688]},"properties":{"name":"Australian Buddhist Vihara","tradition":"buddhist","addr:street":"Cliff Drive","addr:housenumber":"43","country_code":"au"}},{"type":"Feature","geometry":{"type":"Point","coordinates":[145.1802578,-38.0102627]},"properties":{"name":"Dhamma Sarana Temple","tradition":"buddhist","denomination":"theravada","country_code":"au"}},{"type":"Feature","geometry":{"type":"Point","coordinates":[153.32615,-27.992959]},"properties":{"name":"Wat Sangharatanaram","tradition":"buddhist","country_code":"au"}},{"type":"Feature","geometry":{"type":"Point","coordinates":[153.3660237,-28.1123691]},"properties":{"name":"Gold Coast Dharma Realm","tradition":"buddhist","country_code":"au"}},{"type":"Feature","geometry":{"type":"Point","coordinates":[145.1666224,-37.9601018]},"properties":{"name":"Giac Hoang Temple","tradition":"buddhist","country_code":"au"}},{"type":"Feature","geometry":{"type":"Point","coordinates":[151.2006466,-33.9026234]},"properties":{"name":"Yiu Ming Temple","tradition":"buddhist","country_code":"au"}},{"type":"Feature","geometry":{"type":"Point","coordinates":[145.1444569,-37.97378]},"properties":{"name":"Wat Buddharangsi Melbourne","tradition":"buddhist","country_code":"au"}},{"type":"Feature","geometry":{"type":"Point","coordinates":[152.9817934,-27.5769222]},"properties":{"name":"Phap Quang Temple","tradition":"buddhist","denomination":"mahayana_(vietnamese)","addr:street":"Blunder Road","addr:housenumber":"153","addr:city":"Brisbane","addr:postcode":"4077","country_code":"au"}},{"type":"Feature","geometry":{"type":"Point","coordinates":[152.946478,-27.6224806]},"properties":{"name":"Queensland Burmese Buddhist Association","tradition":"buddhist","addr:street":"Bagnall Street","addr:housenumber":"159","addr:city":"Brisbane","addr:postcode":"4078","country_code":"au"}},{"type":"Feature","geometry":{"type":"Point","coordinates":[116.0489323,-32.1281439]},"properties":{"name":"Dhammayanaram Monastery - The Cambodian Buddhist Society of Western Australia","tradition":"buddhist","addr:street":"Scott Road","addr:housenumber":"56","addr:postcode":"6111","country_code":"au","phone":"+61 8 9390 5068","website":"http://perth.cambodianbuddhists.com"}},{"type":"Feature","geometry":{"type":"Point","coordinates":[145.3117992,-37.9879066]},"properties":{"name":"Hung An Tu","tradition":"buddhist","addr:street":"Narre Warren North Road","addr:housenumber":"417-419","addr:postcode":"3804","country_code":"au"}},{"type":"Feature","geometry":{"type":"Point","coordinates":[144.7972175,-37.73257]},"properties":{"name":"Chùa Bồ Đề","name:en":"Bodhi Pagoda","tradition":"buddhist","denomination":"mahayana","addr:street":"Charles Street","addr:housenumber":"30","country_code":"au"}},{"type":"Feature","geometry":{"type":"Point","coordinates":[145.1154112,-37.8128653]},"properties":{"name":"Melbourne Thai Buddhist Temple","tradition":"buddhist","country_code":"au"}},{"type":"Feature","geometry":{"type":"Point","coordinates":[153.08793,-27.6765992]},"properties":{"name":"Khmer Buddhist Society of Queensland","tradition":"buddhist","denomination":"theravada","addr:street":"Third Avenue","addr:housenumber":"50","addr:postcode":"4132","country_code":"au","website":"https://www.buddhistcouncilofqueensland.org/node/61"}},{"type":"Feature","geometry":{"type":"Point","coordinates":[153.0015357,-27.656001]},"properties":{"name":"Wat Thai Buddharam","tradition":"buddhist","country_code":"au"}},{"type":"Feature","geometry":{"type":"Point","coordinates":[152.9438434,-27.6193668]},"properties":{"name":"Sri Lankarama Buddhist Monastery","tradition":"buddhist","addr:street":"Considine Street","addr:housenumber":"114","addr:city":"Brisbane","addr:postcode":"4078","country_code":"au","website":"https://srilankaramaqld.org.au"}},{"type":"Feature","geometry":{"type":"Point","coordinates":[115.8740456,-31.9395178]},"properties":{"name":"崇善殿","name:en":"Temple of Ultimate Kindness","tradition":"buddhist","addr:street":"Harold Street","addr:housenumber":"55","country_code":"au"}},{"type":"Feature","geometry":{"type":"Point","coordinates":[115.8739767,-31.9396153]},"properties":{"name":"祖堂","name:en":"Ancestral Shrine","tradition":"buddhist","addr:street":"Harold Street","addr:housenumber":"55","country_code":"au"}},{"type":"Feature","geometry":{"type":"Point","coordinates":[151.944504,-27.5511293]},"properties":{"name":"Pure Land Learning College","tradition":"buddhist","denomination":"pure_land","country_code":"au"}},{"type":"Feature","geometry":{"type":"Point","coordinates":[116.0185001,-32.4105517]},"properties":{"name":"Jhana Grove Meditation Retreat Centre","tradition":"buddhist","denomination":"theravada","addr:street":"Kingsbury Drive","addr:housenumber":"283","addr:postcode":"6125","country_code":"au","website":"http://www.jhanagrove.org.au/"}},{"type":"Feature","geometry":{"type":"Point","coordinates":[115.8994482,-32.0573846]},"properties":{"name":"Australia Buddhist Bliss Culture Mission","tradition":"buddhist","addr:street":"Woodthorpe Drive","addr:housenumber":"21","addr:postcode":"6155","addr:country":"AU","country_code":"au","website":"https://www.buddhistbliss.org.au/"}},{"type":"Feature","geometry":{"type":"Point","coordinates":[149.0683604,-35.3956122]},"properties":{"name":"Lao Buddhist Community Centre","tradition":"buddhist","country_code":"au"}},{"type":"Feature","geometry":{"type":"Point","coordinates":[149.069448,-35.3966562]},"properties":{"name":"Sri Lanka Buddhist Vihara","tradition":"buddhist","country_code":"au"}},{"type":"Feature","geometry":{"type":"Point","coordinates":[138.5376468,-34.8430288]},"properties":{"name":"Zhu-lin","tradition":"buddhist","country_code":"au"}},{"type":"Feature","geometry":{"type":"Point","coordinates":[144.9672144,-37.7117894]},"properties":{"name":"Quang Duc Monastery","tradition":"buddhist","country_code":"au"}},{"type":"Feature","geometry":{"type":"Point","coordinates":[144.8323121,-37.7852606]},"properties":{"name":"Avalokitesvara Yuan Tong Monastery","tradition":"buddhist","addr:street":"Hampshire Road","addr:housenumber":"270A","country_code":"au"}},{"type":"Feature","geometry":{"type":"Point","coordinates":[144.3493699,-38.0529846]},"properties":{"name":"Wat Samphanthawong Geelong","tradition":"buddhist","country_code":"au"}},{"type":"Feature","geometry":{"type":"Point","coordinates":[138.7025109,-34.9957644]},"properties":{"name":"Adelaide Sri Lanka Buddhist Vihara","tradition":"buddhist","addr:street":"James Street","addr:housenumber":"8","addr:postcode":"5152","country_code":"au"}},{"type":"Feature","geometry":{"type":"Point","coordinates":[151.0731358,-33.8457681]},"properties":{"name":"Sokkai International Australia Buddhist Centre","tradition":"buddhist","addr:street":"Parkview Drive","addr:housenumber":"3","country_code":"au"}},{"type":"Feature","geometry":{"type":"Point","coordinates":[151.082655,-33.3308626]},"properties":{"name":"Wat Buddha Dhamma","tradition":"buddhist","addr:street":"10 Mile Hollow","country_code":"au"}},{"type":"Feature","geometry":{"type":"Point","coordinates":[143.8669406,-37.5760963]},"properties":{"name":"Chinese Temple","tradition":"buddhist","country_code":"au"}},{"type":"Feature","geometry":{"type":"Point","coordinates":[130.9047114,-12.3794076]},"properties":{"name":"The International Buddhist Center, Darwin","tradition":"buddhist","addr:street":"Parkside Crescent","addr:housenumber":"37","addr:country":"AU","country_code":"au","website":"http://ntbuddhist.org/index.html"}},{"type":"Feature","geometry":{"type":"Point","coordinates":[138.4492518,-35.3494884]},"properties":{"name":"Nan Hai Pu Tuo Temple","tradition":"buddhist","addr:street":"Cactus Canyon Road","addr:housenumber":"27","addr:country":"AU","country_code":"au","phone":"+61 8 8556 3168","website":"http://nanhaiputuotemple.com/"}},{"type":"Feature","geometry":{"type":"Point","coordinates":[150.8872969,-33.8884019]},"properties":{"name":"Vat Khemarangsaram Cambodian Buddhist Temple","tradition":"buddhist","country_code":"au"}},{"type":"Feature","geometry":{"type":"Point","coordinates":[150.8485722,-34.4666335]},"properties":{"name":"Nan Tien Temple","tradition":"buddhist","country_code":"au","website":"https://www.nantien.org.au/"}},{"type":"Feature","geometry":{"type":"Point","coordinates":[145.1647866,-37.9727571]},"properties":{"name":"Thiền Tự Pháp Hoa","tradition":"buddhist","country_code":"au"}},{"type":"Feature","geometry":{"type":"Point","coordinates":[151.1109724,-33.7069956]},"properties":{"name":"Amitabha Foundation","tradition":"buddhist","country_code":"au"}},{"type":"Feature","geometry":{"type":"Point","coordinates":[144.186863,-36.7201312]},"properties":{"name":"The Great Stupa of Universal Compassion","tradition":"buddhist","country_code":"au"}},{"type":"Feature","geometry":{"type":"Point","coordinates":[144.8884779,-37.8136937]},"properties":{"name":"Fo Guang Shan","tradition":"buddhist","addr:street":"Somerville Road","addr:housenumber":"89","addr:postcode":"3013","addr:country":"AU","country_code":"au"}},{"type":"Feature","geometry":{"type":"Point","coordinates":[145.1475939,-37.9457733]},"properties":{"name":"Chin Lien Quan Yin Temple","tradition":"buddhist","addr:street":"Queens Avenue","addr:housenumber":"56","country_code":"au"}},{"type":"Feature","geometry":{"type":"Point","coordinates":[145.2060617,-37.983543]},"properties":{"name":"Dhamma Deepa Meditation Centre","tradition":"buddhist","addr:street":"Hemmings Street","addr:housenumber":"43","country_code":"au"}},{"type":"Feature","geometry":{"type":"Point","coordinates":[145.1483755,-37.9683962]},"properties":{"name":"Wat Khmer Melbourne","tradition":"buddhist","addr:street":"Springvale Road","addr:housenumber":"460","country_code":"au"}},{"type":"Feature","geometry":{"type":"Point","coordinates":[145.1484636,-37.9673206]},"properties":{"name":"Hoa Nghiem Buddhist Temple","tradition":"buddhist","denomination":"mahayana","country_code":"au"}},{"type":"Feature","geometry":{"type":"Point","coordinates":[145.1459408,-37.9485803]},"properties":{"name":"Wat Dhamaran Temple","tradition":"buddhist","addr:street":"Balmoral Avenue","addr:housenumber":"53","country_code":"au"}},{"type":"Feature","geometry":{"type":"Point","coordinates":[150.8967018,-33.8949396]},"properties":{"name":"Bonnyrigg Buddist Temple","tradition":"buddhist","country_code":"au"}},{"type":"Feature","geometry":{"type":"Point","coordinates":[150.8909939,-33.8834001]},"properties":{"name":"Chùa Pháp Bảo","tradition":"buddhist","country_code":"au"}},{"type":"Feature","geometry":{"type":"Point","coordinates":[153.0502995,-27.6230152]},"properties":{"name":"Amitabha Buddhist Temple","tradition":"buddhist","addr:street":"Toona Place","addr:housenumber":"11","country_code":"au"}},{"type":"Feature","geometry":{"type":"Point","coordinates":[151.1773738,-33.8983844]},"properties":{"name":"Sydney Buddhist Centre","tradition":"buddhist","addr:street":"Enmore Road","addr:housenumber":"24","country_code":"au","website":"https://sydneybuddhistcentre.org.au/"}},{"type":"Feature","geometry":{"type":"Point","coordinates":[151.0071655,-33.8209098]},"properties":{"name":"Fo Guang Shan Nan Tien Buddhist Temple Parramatta","tradition":"buddhist","country_code":"au"}},{"type":"Feature","geometry":{"type":"Point","coordinates":[150.9541616,-33.8931058]},"properties":{"name":"Minh Quang Monastery","tradition":"buddhist","addr:street":"Chadderton Street","addr:housenumber":"28-32","addr:postcode":"2166","country_code":"au"}},{"type":"Feature","geometry":{"type":"Point","coordinates":[150.9414536,-33.8909623]},"properties":{"name":"Shaolin Temple","tradition":"buddhist","addr:street":"Broomfield Street","addr:housenumber":"32","addr:postcode":"2166","country_code":"au"}},{"type":"Feature","geometry":{"type":"Point","coordinates":[144.8007867,-37.7386975]},"properties":{"name":"Chùa Hoằng Pháp","name:en":"Hoang Phap Buddhist Temple","tradition":"buddhist","addr:street":"Arthur Street","addr:housenumber":"16","country_code":"au"}},{"type":"Feature","geometry":{"type":"Point","coordinates":[149.0407154,-35.2406114]},"properties":{"name":"Khemararangsi Wat","tradition":"buddhist","country_code":"au"}},{"type":"Feature","geometry":{"type":"Point","coordinates":[145.1465968,-37.9740255]},"properties":{"name":"Bright Moon Buddhist Society","tradition":"buddhist","addr:street":"Springvale Road","addr:housenumber":"536-540","addr:postcode":"3172","country_code":"au"}},{"type":"Feature","geometry":{"type":"Point","coordinates":[136.8726821,-35.7483707]},"properties":{"name":"De-Tong Ling","tradition":"buddhist","country_code":"au"}},{"type":"Feature","geometry":{"type":"Point","coordinates":[151.0842776,-33.3305006]},"properties":{"name":"Wat","tradition":"buddhist","denomination":"theravada","country_code":"au"}},{"type":"Feature","geometry":{"type":"Point","coordinates":[152.9669486,-27.5855254]},"properties":{"name":"Phat Da Temple","tradition":"buddhist","addr:street":"Deodar Street","addr:housenumber":"36","addr:postcode":"4077","country_code":"au","website":"https://www.buddhistcouncilofqueensland.org/node/93"}},{"type":"Feature","geometry":{"type":"Point","coordinates":[150.2867877,-33.6789549]},"properties":{"name":"Blue Mountains Insight Meditation Centre","tradition":"buddhist","addr:street":"Rutland Road","addr:housenumber":"25","country_code":"au","website":"https://bmimc.org.au/"}},{"type":"Feature","geometry":{"type":"Point","coordinates":[151.1308365,-33.9724787]},"properties":{"name":"Nan Tien Buddhist Temple Kogarah","tradition":"buddhist","addr:street":"Princes Highway","addr:housenumber":"247","country_code":"au","website":"https://www.ibaakogarah.org.au/"}},{"type":"Feature","geometry":{"type":"Point","coordinates":[144.9631751,-37.8367964]},"properties":{"name":"See Yup temple","tradition":"buddhist","country_code":"au"}},{"type":"Feature","geometry":{"type":"Point","coordinates":[144.7920235,-37.7575269]},"properties":{"name":"An Quang Buddhist Temple","name:en":"An Quang Buddhist Temple","tradition":"buddhist","denomination":"mahayana","addr:street":"Cairnlea Drive","addr:housenumber":"159","addr:postcode":"3023","addr:country":"AU","country_code":"au"}},{"type":"Feature","geometry":{"type":"Point","coordinates":[145.0252797,-37.6817564]},"properties":{"name":"Wat Eysanmeanchey","tradition":"buddhist","country_code":"au"}},{"type":"Feature","geometry":{"type":"Point","coordinates":[145.3250793,-38.0552102]},"properties":{"name":"Sakyamuni Sambuddha Vihara","tradition":"buddhist","country_code":"au"}},{"type":"Feature","geometry":{"type":"Point","coordinates":[144.9702792,-37.6725975]},"properties":{"name":"Samadhi Buddhist Meditation Centre","tradition":"buddhist","addr:street":"Malcolm Place","addr:housenumber":"39","addr:postcode":"3061","country_code":"au"}},{"type":"Feature","geometry":{"type":"Point","coordinates":[145.3160004,-38.154591]},"properties":{"name":"Wat Lao Cranbourne","tradition":"buddhist","denomination":"theravada","addr:street":"South Gippsland Highway Service Road","addr:housenumber":"1970","country_code":"au"}},{"type":"Feature","geometry":{"type":"Point","coordinates":[144.702522,-37.7417525]},"properties":{"name":"Paramitha Buddhist Viharaya","tradition":"buddhist","country_code":"au"}},{"type":"Feature","geometry":{"type":"Point","coordinates":[145.206212,-37.8170379]},"properties":{"name":"Wat Lao","tradition":"buddhist","denomination":"theravada","addr:street":"Whitehorse Road","addr:housenumber":"698-700","country_code":"au","website":"https://www.facebook.com/profile.php?id=100069820999353"}},{"type":"Feature","geometry":{"type":"Point","coordinates":[150.5080681,-33.50665]},"properties":{"name":"Mountain Spring Monastery","tradition":"buddhist","denomination":"plum_village","addr:street":"Bells Line of Road","addr:housenumber":"2657","addr:postcode":"2758","country_code":"au","website":"https://www.mountainspringmonastery.org"}},{"type":"Feature","geometry":{"type":"Point","coordinates":[150.9056664,-33.8467148]},"properties":{"name":"Phước Huệ Temple","tradition":"buddhist","country_code":"au"}},{"type":"Feature","geometry":{"type":"Point","coordinates":[144.9943512,-37.8110561]},"properties":{"name":"Chùa Phước Tường","tradition":"buddhist","addr:street":"Elizabeth Street","addr:housenumber":"61","country_code":"au"}},{"type":"Feature","geometry":{"type":"Point","coordinates":[138.6100434,-34.7569088]},"properties":{"name":"Wat Khmer Santipheap Association of Sa Inc.","tradition":"buddhist","country_code":"au"}},{"type":"Feature","geometry":{"type":"Point","coordinates":[138.6099655,-34.7570319]},"properties":{"name":"Wat Khmer Santipheap Association of Sa Inc.","tradition":"buddhist","country_code":"au"}},{"type":"Feature","geometry":{"type":"Point","coordinates":[138.6098274,-34.7571078]},"properties":{"name":"Wat Khmer Santipheap Association of Sa Inc.","tradition":"buddhist","country_code":"au"}},{"type":"Feature","geometry":{"type":"Point","coordinates":[138.609974,-34.757243]},"properties":{"name":"Wat Khmer Santipheap Association of Sa Inc.","tradition":"buddhist","country_code":"au"}},{"type":"Feature","geometry":{"type":"Point","coordinates":[150.9249617,-33.8961454]},"properties":{"name":"Vien Giac Temple","tradition":"buddhist","country_code":"au","phone":"+61 2 8764 8570","website":"https://www.chuaviengiac.org.au/"}},{"type":"Feature","geometry":{"type":"Point","coordinates":[150.9281045,-33.8931547]},"properties":{"name":"Thien Hoa Buddhist Temple","tradition":"buddhist","country_code":"au"}},{"type":"Feature","geometry":{"type":"Point","coordinates":[150.9284393,-33.8896435]},"properties":{"name":"Minh Giac Temple","tradition":"buddhist","country_code":"au"}},{"type":"Feature","geometry":{"type":"Point","coordinates":[144.6817889,-37.8481716]},"properties":{"name":"Mahamevnawa Buddhist Meditation Centre","tradition":"buddhist","country_code":"au"}},{"type":"Feature","geometry":{"type":"Point","coordinates":[105.6790385,-10.4254504]},"properties":{"name":"Zhen Jian Tong Xin Hui Temple Complex","tradition":"buddhist","country_code":"au"}},{"type":"Feature","geometry":{"type":"Point","coordinates":[150.5089701,-23.3427849]},"properties":{"name":"Ananda Buddhist Centre","tradition":"buddhist","addr:street":"Hinchcliff Street","country_code":"au","phone":"+61 417 259 669","website":"https://www.anandabuddhist.com.au/"}},{"type":"Feature","geometry":{"type":"Point","coordinates":[144.8633191,-37.7974529]},"properties":{"name":"Chùa Phật Quang","name:en":"Chùa Phật Quang","tradition":"buddhist","addr:street":"Rupert Street","addr:housenumber":"176","country_code":"au"}},{"type":"Feature","geometry":{"type":"Point","coordinates":[149.1016745,-35.1793069]},"properties":{"name":"Hu Guo Bao En Temple","tradition":"buddhist","addr:street":"Colbert Close","addr:housenumber":"7","country_code":"au","website":"https://www.australia-buddhism.org.au/en/home.html"}},{"type":"Feature","geometry":{"type":"Point","coordinates":[150.927255,-33.8933607]},"properties":{"name":"Vinh Nghiem Pagoda Temple","tradition":"buddhist","country_code":"au"}}]}