{"type":"FeatureCollection","features":[{"type":"Feature","geometry":{"type":"Point","coordinates":[92.1977168,22.2231095]},"properties":{"name":"Buddha Dhatu Jadi","tradition":"buddhist","country_code":"bd"}},{"type":"Feature","geometry":{"type":"Point","coordinates":[92.1706097,22.6657564]},"properties":{"name":"RajBana Bihar","tradition":"buddhist","denomination":"theravada","country_code":"bd"}},{"type":"Feature","geometry":{"type":"Point","coordinates":[89.2949924,26.0314568]},"properties":{"name":"Chandrapur Temple","tradition":"buddhist","country_code":"bd"}},{"type":"Feature","geometry":{"type":"Point","coordinates":[91.7935492,22.483732]},"properties":{"name":"বিশ্ব শান্তি প্যাগোডা","name:en":"World Peace Paggoda","tradition":"buddhist","addr:street":"University Road 2","country_code":"bd"}},{"type":"Feature","geometry":{"type":"Point","coordinates":[91.8305464,22.3418963]},"properties":{"name":"Buddhist Temple","tradition":"buddhist","country_code":"bd"}},{"type":"Feature","geometry":{"type":"Point","coordinates":[92.1955644,22.4939953]},"properties":{"name":"Chitmorom Buddhist Temple/চিৎমরম বৌদ্ধ বিহার","tradition":"buddhist","addr:street":"Chittagong-Kaptai Highway","country_code":"bd"}},{"type":"Feature","geometry":{"type":"Point","coordinates":[92.2233893,22.1973788]},"properties":{"name":"Ujani Para Buddhist Temple","tradition":"buddhist","country_code":"bd"}},{"type":"Feature","geometry":{"type":"Point","coordinates":[92.2444087,22.1955224]},"properties":{"name":"Ram Jadi","tradition":"buddhist","addr:street":"Bandarban Rowangchari Rd","addr:city":"Bandarban","country_code":"bd"}},{"type":"Feature","geometry":{"type":"Point","coordinates":[92.1044682,22.6588785]},"properties":{"name":"Furmon Buddhist Temple","tradition":"buddhist","country_code":"bd"}},{"type":"Feature","geometry":{"type":"Point","coordinates":[92.0562229,21.8333088]},"properties":{"name":"Harbang Buddhist Temple","tradition":"buddhist","country_code":"bd"}},{"type":"Feature","geometry":{"type":"Point","coordinates":[91.134511,23.4255351]},"properties":{"name":"Shalban Buddist Temple","tradition":"buddhist","country_code":"bd"}},{"type":"Feature","geometry":{"type":"Point","coordinates":[90.3509845,23.8618906]},"properties":{"name":"Bangladesh Buddho Moha Bihar","tradition":"buddhist","country_code":"bd"}},{"type":"Feature","geometry":{"type":"Point","coordinates":[91.7928738,22.321546]},"properties":{"name":"Port Buddhist Temple","tradition":"buddhist","country_code":"bd"}},{"type":"Feature","geometry":{"type":"Point","coordinates":[91.8793734,23.3867611]},"properties":{"name":"Dhudukchara Adarsha Buddha Vihar","tradition":"buddhist","country_code":"bd"}},{"type":"Feature","geometry":{"type":"Point","coordinates":[91.648679,22.6358213]},"properties":{"name":"Panthsala Dharmankur Buddhist Monastery, Saidpur, Chittagong","tradition":"buddhist","country_code":"bd"}},{"type":"Feature","geometry":{"type":"Point","coordinates":[91.647738,22.635533]},"properties":{"name":"পন্থিছিলা সার্বজনীন শ্মশান বৌদ্ধ বিহার","tradition":"buddhist","country_code":"bd"}},{"type":"Feature","geometry":{"type":"Point","coordinates":[91.6353169,22.6713419]},"properties":{"name":"শ্রী শ্রী লোকনাথ ধাম","tradition":"buddhist","country_code":"bd"}},{"type":"Feature","geometry":{"type":"Point","coordinates":[91.6786128,22.5823242]},"properties":{"name":"Barabkunda Central Jaame Masjid","tradition":"buddhist","country_code":"bd"}},{"type":"Feature","geometry":{"type":"Point","coordinates":[91.7796319,22.2919805]},"properties":{"name":"Phara Raung Khraytaw Kyaung, Buddhist temple, BEPZA College Rd, Chattogram","tradition":"buddhist","country_code":"bd"}},{"type":"Feature","geometry":{"type":"Point","coordinates":[91.7875446,22.2516111]},"properties":{"name":"Shakyamuni Buddist Temple & RDNA meditation center, Unnamed Road, Chattogram","tradition":"buddhist","country_code":"bd"}},{"type":"Feature","geometry":{"type":"Point","coordinates":[91.798395,22.5549567]},"properties":{"name":"Barua Para Road (3rd Ward) Mirzapur Khagrachhari, Buddhist temple, Khagrachhari Rd, Chattogram","tradition":"buddhist","country_code":"bd"}},{"type":"Feature","geometry":{"type":"Point","coordinates":[92.0107996,22.3441979]},"properties":{"name":"ছতরপিটুয়া আর্য্যশ্রাবক সংঘ অরণ্যারাম","tradition":"buddhist","country_code":"bd"}},{"type":"Feature","geometry":{"type":"Point","coordinates":[91.8506889,22.5134894]},"properties":{"name":"West Gohira Shantimayi Vihar, Buddhist temple, Gohira, Chittagong - Rangamati Hwy, Chattogram","tradition":"buddhist","country_code":"bd"}},{"type":"Feature","geometry":{"type":"Point","coordinates":[91.7911368,22.3010304]},"properties":{"name":"Hill Chadiganga Bouddha Bihar, Saltgola Crossing, Bandar, CEPZ, Chattogram","tradition":"buddhist","country_code":"bd"}},{"type":"Feature","geometry":{"type":"Point","coordinates":[90.4254952,24.1544717]},"properties":{"name":"Siddiqui Buddhist temple","tradition":"buddhist","country_code":"bd"}},{"type":"Feature","geometry":{"type":"Point","coordinates":[92.2240206,23.1477773]},"properties":{"name":"কাচালং আর্যপুর ধর্মজ্জল বন বিহার","name:en":"Kachalong Arjopur Dormojjol Bana Bihar","tradition":"buddhist","country_code":"bd"}},{"type":"Feature","geometry":{"type":"Point","coordinates":[92.2053576,23.077446]},"properties":{"name":"খেদারমারা ভাবনা কেন্দ্র","name:en":"Khedarmara vabna Center","tradition":"buddhist","country_code":"bd"}},{"type":"Feature","geometry":{"type":"Point","coordinates":[90.1022066,24.1041501]},"properties":{"name":"Footprints of Atarshi Pirmurid Jaraj, Buddhist temple","tradition":"buddhist","country_code":"bd"}},{"type":"Feature","geometry":{"type":"Point","coordinates":[91.8304481,22.3418442]},"properties":{"name":"Chittagong Buddhist Bihar","tradition":"buddhist","addr:city":"Chittagong","country_code":"bd"}},{"type":"Feature","geometry":{"type":"Point","coordinates":[92.1740554,22.6621686]},"properties":{"name":"Raj Bihar","tradition":"buddhist","denomination":"theravada","country_code":"bd"}},{"type":"Feature","geometry":{"type":"Point","coordinates":[92.1719794,22.6633505]},"properties":{"name":"Ben Ghor","tradition":"buddhist","denomination":"theravada","country_code":"bd"}},{"type":"Feature","geometry":{"type":"Point","coordinates":[92.1712069,22.6643779]},"properties":{"name":"ShaatShorgo","tradition":"buddhist","country_code":"bd"}},{"type":"Feature","geometry":{"type":"Point","coordinates":[92.1704708,22.6662671]},"properties":{"name":"BanaBhante Building","tradition":"buddhist","country_code":"bd"}},{"type":"Feature","geometry":{"type":"Point","coordinates":[92.101658,21.4305689]},"properties":{"name":"Ramu Central Sheema Bihar রামু কেন্দ্রীয় সীমা বিহার","tradition":"buddhist","country_code":"bd"}},{"type":"Feature","geometry":{"type":"Point","coordinates":[91.6570889,22.6195939]},"properties":{"name":"Chandra Joti Buddho Bihar","tradition":"buddhist","country_code":"bd"}},{"type":"Feature","geometry":{"type":"Point","coordinates":[91.6790769,22.581014]},"properties":{"name":"Barabkunda Buddha Bihar বাড়বকুন্ড বৌদ্ধ বিহার","tradition":"buddhist","addr:city":"Barbakunda","country_code":"bd"}},{"type":"Feature","geometry":{"type":"Point","coordinates":[92.091212,21.4449293]},"properties":{"name":"Pragya Mitra Forest Temple প্রজ্ঞা মিত্র বনবিহার","tradition":"buddhist","country_code":"bd"}},{"type":"Feature","geometry":{"type":"Point","coordinates":[92.0921513,21.4457957]},"properties":{"name":"Pragyan Mitra Forest Temple (Old) প্রজ্ঞা মিত্র বনবিহার (পুরাতন)","tradition":"buddhist","country_code":"bd"}},{"type":"Feature","geometry":{"type":"Point","coordinates":[91.9591866,22.3044751]},"properties":{"name":"Naikhain Buddist Temple","tradition":"buddhist","country_code":"bd"}},{"type":"Feature","geometry":{"type":"Point","coordinates":[91.8039543,22.5139729]},"properties":{"name":"Mirer Khil Chandrapur Banoban Bihar মিরের খীল চন্দ্রপুর বেণুবন বিহার","tradition":"buddhist","country_code":"bd"}},{"type":"Feature","geometry":{"type":"Point","coordinates":[91.8373226,22.8428281]},"properties":{"name":"Mohamuni Buddho Bihar মহামুণী বুদ্ধ বিহার Chittagong-Khagrachari Rd","tradition":"buddhist","country_code":"bd"}},{"type":"Feature","geometry":{"type":"Point","coordinates":[91.8382881,22.8447433]},"properties":{"name":"Raj Giri Moitri Buddha Bihar রাজ গিরি মৈত্রী বুদ্ধ বিহার","tradition":"buddhist","addr:city":"Manikchari","country_code":"bd"}},{"type":"Feature","geometry":{"type":"Point","coordinates":[91.8727198,23.0404183]},"properties":{"name":"Assokarama Buddhist Vihara","tradition":"buddhist","country_code":"bd"}},{"type":"Feature","geometry":{"type":"Point","coordinates":[91.9691612,23.0979168]},"properties":{"name":"Aparajita Buddhist Pagoda,Khagrachari অপরাজিতা বৌদ্ধ প্যাগোডা, খাগড়াছড়ি","tradition":"buddhist","country_code":"bd"}},{"type":"Feature","geometry":{"type":"Point","coordinates":[91.9792125,23.1147753]},"properties":{"name":"Janabal Buddhist Pagoda,Mahajanpara,Khagrachari","tradition":"buddhist","country_code":"bd"}},{"type":"Feature","geometry":{"type":"Point","coordinates":[91.9653414,23.1279496]},"properties":{"name":"Shasna Rakkhita Buddhist Monestary","tradition":"buddhist","country_code":"bd"}},{"type":"Feature","geometry":{"type":"Point","coordinates":[91.9066727,23.2872849]},"properties":{"name":"Mog Para Buddhist Temple","tradition":"buddhist","country_code":"bd"}},{"type":"Feature","geometry":{"type":"Point","coordinates":[91.1344486,23.425492]},"properties":{"name":"Shalban Buddist Temple","tradition":"buddhist","country_code":"bd"}},{"type":"Feature","geometry":{"type":"Point","coordinates":[91.6476715,22.6355588]},"properties":{"name":"Panthichila sarbajanina cremation Buddhist monastery, Dhaka - Chittagong Hwy, Saidpur, Chattogram","tradition":"buddhist","country_code":"bd"}},{"type":"Feature","geometry":{"type":"Point","coordinates":[92.1455337,21.3583505]},"properties":{"name":"boddho mondir","tradition":"buddhist","country_code":"bd"}},{"type":"Feature","geometry":{"type":"Point","coordinates":[90.4294887,23.7357972]},"properties":{"name":"ধর্মরাজিক বৌদ্ধমন্দির","name:en":"Dharmarajikha Buddhist Monastery","tradition":"buddhist","country_code":"bd"}},{"type":"Feature","geometry":{"type":"Point","coordinates":[92.1065792,21.4292509]},"properties":{"name":"Ramu Shrikul Vihara","tradition":"buddhist","country_code":"bd"}},{"type":"Feature","geometry":{"type":"Point","coordinates":[92.1068171,21.4291595]},"properties":{"name":"Shrikul Temple","tradition":"buddhist","country_code":"bd"}},{"type":"Feature","geometry":{"type":"Point","coordinates":[92.1072789,21.4295233]},"properties":{"name":"Ramu Lal CHing Buddhist Temple","tradition":"buddhist","country_code":"bd"}},{"type":"Feature","geometry":{"type":"Point","coordinates":[92.1070766,21.4295569]},"properties":{"name":"Shada Ching Buddhist Temple","tradition":"buddhist","country_code":"bd"}},{"type":"Feature","geometry":{"type":"Point","coordinates":[92.1068324,21.4297904]},"properties":{"name":"Ramu Maitree Vihar","tradition":"buddhist","country_code":"bd"}},{"type":"Feature","geometry":{"type":"Point","coordinates":[92.0931882,21.4478781]},"properties":{"name":"Bhuban Shanti 100 feet lying statue of Goutam Buddha","tradition":"buddhist","country_code":"bd"}},{"type":"Feature","geometry":{"type":"Point","coordinates":[92.0926669,21.44784]},"properties":{"name":"meditation shed","tradition":"buddhist","country_code":"bd"}},{"type":"Feature","geometry":{"type":"Point","coordinates":[92.109065,21.4292144]},"properties":{"name":"uchit san temple compound","tradition":"buddhist","country_code":"bd"}},{"type":"Feature","geometry":{"type":"Point","coordinates":[92.0201111,22.614269]},"properties":{"name":"Tri Ratna Bihar","tradition":"buddhist","country_code":"bd"}},{"type":"Feature","geometry":{"type":"Point","coordinates":[92.190101,22.640674]},"properties":{"name":"Ananda Bihar","tradition":"buddhist","addr:street":"Tabalchari Road","addr:city":"Rangamati","addr:postcode":"4500","country_code":"bd"}},{"type":"Feature","geometry":{"type":"Point","coordinates":[90.3760242,23.8060438]},"properties":{"name":"Shakyamuni Buddhist Temple","tradition":"buddhist","country_code":"bd"}},{"type":"Feature","geometry":{"type":"Point","coordinates":[92.2240135,23.1478008]},"properties":{"name":"কাচালং আর্যপুর ধর্মজ্জল বন বিহার","name:en":"Kachalong Arjopur Dormojjol Bana Bihar","tradition":"buddhist","country_code":"bd"}},{"type":"Feature","geometry":{"type":"Point","coordinates":[90.1435516,23.6577743]},"properties":{"name":"Kalacopa Buddha Mondir","tradition":"buddhist","country_code":"bd"}}]}