{"type":"FeatureCollection","features":[{"type":"Feature","geometry":{"type":"Point","coordinates":[-70.6302469,-33.458961]},"properties":{"name":"Templo Budista FGS Chile - Santa Elena","tradition":"buddhist","addr:street":"Santa Elena","addr:housenumber":"1308","addr:city":"Santiago","country_code":"cl","phone":"+56 2 556 0056","website":"https://www.templobudista-fgs.cl/"}},{"type":"Feature","geometry":{"type":"Point","coordinates":[-70.3803901,-30.1542422]},"properties":{"name":"Estupa de la Iluminación","tradition":"buddhist","denomination":"tibetan","addr:street":"Ruta D-487","addr:city":"Cochiguaz","country_code":"cl","website":"http://www.ozerling.com"}},{"type":"Feature","geometry":{"type":"Point","coordinates":[-71.7451572,-39.2397681]},"properties":{"name":"Centro de Retiros Chamspaling","tradition":"buddhist","country_code":"cl"}},{"type":"Feature","geometry":{"type":"Point","coordinates":[-71.7460678,-39.2399065]},"properties":{"name":"Stupa de la Iluminacion","tradition":"buddhist","country_code":"cl"}},{"type":"Feature","geometry":{"type":"Point","coordinates":[-70.5904022,-33.4622884]},"properties":{"name":"Centro Budista Camino del Diamante","tradition":"buddhist","denomination":"tibetan","addr:street":"Santa Julia","addr:housenumber":"722","addr:city":"Ñuñoa","country_code":"cl"}},{"type":"Feature","geometry":{"type":"Point","coordinates":[-70.8865023,-33.6566962]},"properties":{"name":"Templo Budista Fo Guang Shan Chile","tradition":"buddhist","addr:street":"Santa Amelia","addr:housenumber":"8","addr:city":"Talagante","country_code":"cl","phone":"+56 2 2817 2024","website":"https://www.templobudista-fgs.cl/"}},{"type":"Feature","geometry":{"type":"Point","coordinates":[-70.6285154,-33.4483953]},"properties":{"name":"Centro de Meditacion Kadampa Chile","tradition":"buddhist","denomination":"new_kadampa_tradition","addr:street":"Seminario","addr:housenumber":"589","addr:city":"Providencia","addr:postcode":"7501533","country_code":"cl"}}]}