{"type":"FeatureCollection","features":[{"type":"Feature","geometry":{"type":"Point","coordinates":[-1.4979148,53.3891024]},"properties":{"name":"The Sheffield Buddhist Centre","tradition":"buddhist","country_code":"gb"}},{"type":"Feature","geometry":{"type":"Point","coordinates":[-1.5030693,53.3670736]},"properties":{"name":"Kadampa Meditation Centre Sheffield","tradition":"buddhist","country_code":"gb"}},{"type":"Feature","geometry":{"type":"Point","coordinates":[-0.0512545,51.5280326]},"properties":{"name":"London Buddhist Centre","tradition":"buddhist","addr:street":"Roman Road","addr:housenumber":"51","addr:city":"London","addr:postcode":"E2 0HU","country_code":"gb"}},{"type":"Feature","geometry":{"type":"Point","coordinates":[-5.0875682,55.5329799]},"properties":{"name":"Holy Isle Centre","tradition":"buddhist","country_code":"gb"}},{"type":"Feature","geometry":{"type":"Point","coordinates":[-0.1077444,51.5494177]},"properties":{"name":"North London Buddhist Centre","tradition":"buddhist","country_code":"gb"}},{"type":"Feature","geometry":{"type":"Point","coordinates":[-2.2378204,53.4837401]},"properties":{"name":"Manchester Buddhist Centre","tradition":"buddhist","addr:street":"Turner Street","addr:housenumber":"16-20","addr:city":"Manchester","addr:postcode":"M4 1DZ","addr:country":"GB","country_code":"gb"}},{"type":"Feature","geometry":{"type":"Point","coordinates":[0.2276654,51.4449363]},"properties":{"name":"Vietnamese Buddhist Meditation Centre","tradition":"buddhist","country_code":"gb"}},{"type":"Feature","geometry":{"type":"Point","coordinates":[-0.1426171,50.8214007]},"properties":{"name":"Bodhi Garden","tradition":"buddhist","country_code":"gb"}},{"type":"Feature","geometry":{"type":"Point","coordinates":[0.3085946,52.0550055]},"properties":{"name":"Marpa House","tradition":"buddhist","country_code":"gb"}},{"type":"Feature","geometry":{"type":"Point","coordinates":[-2.2675412,53.464033]},"properties":{"name":"Manchester Fo Kuang Shan Buddhist Temple","tradition":"buddhist","addr:street":"Stretford Road","addr:housenumber":"540","addr:city":"Manchester","addr:postcode":"M16 9AF","country_code":"gb"}},{"type":"Feature","geometry":{"type":"Point","coordinates":[-0.8015008,51.0035341]},"properties":{"name":"Cittaviveka","tradition":"buddhist","denomination":"theravada","addr:street":"Chithurst Lane","addr:city":"Petersfield","addr:postcode":"GU31 5EU","addr:country":"GB","country_code":"gb","website":"https://www.cittaviveka.org/"}},{"type":"Feature","geometry":{"type":"Point","coordinates":[-1.8831354,55.119185]},"properties":{"name":"Aruna Ratanagiri","tradition":"buddhist","denomination":"theravada","addr:housenumber":"2","addr:city":"Belsay","addr:country":"GB","country_code":"gb","website":"https://ratanagiri.org.uk/"}},{"type":"Feature","geometry":{"type":"Point","coordinates":[-1.6298112,52.2376129]},"properties":{"name":"The Forest Hermitage","tradition":"buddhist","denomination":"theravada","addr:city":"Lower Fulbrook","addr:postcode":"CV35 8AS","addr:country":"GB","country_code":"gb","website":"https://foresthermitage.org.uk/"}},{"type":"Feature","geometry":{"type":"Point","coordinates":[-1.551275,53.7979479]},"properties":{"name":"Jamyang","tradition":"buddhist","denomination":"tibetan","addr:street":"St Paul's Street","addr:housenumber":"31","addr:city":"Leeds","addr:postcode":"LS1 2JG","country_code":"gb","website":"https://jamyangleeds.co.uk/"}},{"type":"Feature","geometry":{"type":"Point","coordinates":[-0.3960553,54.2858479]},"properties":{"name":"Kagyu Samye Dzong","tradition":"buddhist","denomination":"tibetan","addr:street":"St Mary's Walk","addr:city":"Scarborough","addr:postcode":"YO11 1RN","country_code":"gb","website":"http://www.ksdscarborough.org.uk/"}},{"type":"Feature","geometry":{"type":"Point","coordinates":[-3.1887227,55.2896064]},"properties":{"name":"Main Temple","tradition":"buddhist","country_code":"gb"}},{"type":"Feature","geometry":{"type":"Point","coordinates":[-3.1886744,55.2890046]},"properties":{"name":"Chenrezig shrine","tradition":"buddhist","country_code":"gb"}},{"type":"Feature","geometry":{"type":"Point","coordinates":[-3.1889051,55.2898217]},"properties":{"name":"Mahakala Shrine","tradition":"buddhist","country_code":"gb"}},{"type":"Feature","geometry":{"type":"Point","coordinates":[-0.3168084,51.3794176]},"properties":{"name":"Shinnyo-En Temple","tradition":"buddhist","addr:street":"Woodstock Lane North","country_code":"gb","website":"https://www.shinnyoenuk.org/"}},{"type":"Feature","geometry":{"type":"Point","coordinates":[-1.5521712,54.5217528]},"properties":{"name":"Atisha Kapadampa Meditation Centre","tradition":"buddhist","addr:street":"Victoria Road","addr:housenumber":"81","addr:city":"Darlington","addr:postcode":"DL1 5JQ","country_code":"gb","website":"https://meditationindarlington.org"}},{"type":"Feature","geometry":{"type":"Point","coordinates":[-1.7921529,53.659284]},"properties":{"name":"Vajrapani Kadampa Buddhist Centre","tradition":"buddhist","country_code":"gb"}},{"type":"Feature","geometry":{"type":"Point","coordinates":[-2.4069514,52.0845224]},"properties":{"name":"Adhisthana","tradition":"buddhist","country_code":"gb"}},{"type":"Feature","geometry":{"type":"Point","coordinates":[-1.6241567,54.9709079]},"properties":{"name":"Newcastle Buddhist Centre","tradition":"buddhist","addr:street":"Westgate Road","addr:housenumber":"187","addr:city":"Newcastle upon Tyne","addr:postcode":"NE4 6AA","addr:country":"GB","country_code":"gb","website":"https://www.newcastlebuddhistcentre.org/"}},{"type":"Feature","geometry":{"type":"Point","coordinates":[-1.5640417,53.7848005]},"properties":{"name":"Jamyang Buddhist Centre","tradition":"buddhist","addr:street":"Ingram Road","addr:city":"Leeds","addr:postcode":"LS11 9RQ","country_code":"gb"}},{"type":"Feature","geometry":{"type":"Point","coordinates":[-0.2404922,52.5920608]},"properties":{"name":"Drolma Centre","tradition":"buddhist","addr:street":"Dogsthorpe Road","addr:housenumber":"260","addr:city":"Peterborough","addr:postcode":"PE1 3PG","country_code":"gb"}},{"type":"Feature","geometry":{"type":"Point","coordinates":[-0.1889083,51.5177249]},"properties":{"name":"West London Buddhist Centre","tradition":"buddhist","addr:street":"Porchester Road","addr:housenumber":"45a","addr:city":"London","country_code":"gb","phone":"+44 20 7727 9382","website":"https://westlondonbuddhistcentre.com/"}},{"type":"Feature","geometry":{"type":"Point","coordinates":[-0.1961552,51.5188633]},"properties":{"name":"Dechen London: Sakya Buddhist Centre","tradition":"buddhist","addr:street":"Chepstow Road","addr:housenumber":"106","addr:city":"London","country_code":"gb","website":"https://www.dechen.london/"}},{"type":"Feature","geometry":{"type":"Point","coordinates":[-1.0772798,53.9572309]},"properties":{"name":"York Buddhist Centre","tradition":"buddhist","addr:street":"Walmgate","addr:housenumber":"17","addr:city":"York","addr:postcode":"YO1 9TX","country_code":"gb","website":"https://yorkbuddhistcentre.org/"}},{"type":"Feature","geometry":{"type":"Point","coordinates":[-0.7831008,51.6037065]},"properties":{"name":"Stupas","tradition":"buddhist","country_code":"gb"}},{"type":"Feature","geometry":{"type":"Point","coordinates":[-0.7830259,51.6040403]},"properties":{"name":"Stupas","tradition":"buddhist","country_code":"gb"}},{"type":"Feature","geometry":{"type":"Point","coordinates":[-0.7827795,51.6043565]},"properties":{"name":"Stupas","tradition":"buddhist","country_code":"gb"}},{"type":"Feature","geometry":{"type":"Point","coordinates":[-0.7825216,51.6046707]},"properties":{"name":"Stupas","tradition":"buddhist","country_code":"gb"}},{"type":"Feature","geometry":{"type":"Point","coordinates":[-0.7822572,51.6050157]},"properties":{"name":"Stupas","tradition":"buddhist","country_code":"gb"}},{"type":"Feature","geometry":{"type":"Point","coordinates":[-2.1813581,53.3985414]},"properties":{"name":"Wat Phra Dhammakaya Manchester","tradition":"buddhist","addr:street":"Edgeley Road","addr:housenumber":"233A","addr:city":"Stockport","addr:postcode":"SK3 0TL","country_code":"gb"}},{"type":"Feature","geometry":{"type":"Point","coordinates":[-2.0144669,51.3991115]},"properties":{"name":"International Mediation Centre","tradition":"buddhist","addr:street":"Heddington","addr:city":"Calne","addr:postcode":"SN11 0PE","country_code":"gb","website":"https://internationalmeditationcentre.org/"}},{"type":"Feature","geometry":{"type":"Point","coordinates":[-1.9141187,52.495419]},"properties":{"name":"Birmingham Buddhist Maha Vihara","tradition":"buddhist","addr:street":"New John Street","addr:housenumber":"216","addr:city":"Hockley","country_code":"gb"}},{"type":"Feature","geometry":{"type":"Point","coordinates":[-0.888302,52.2411363]},"properties":{"name":"TBS Jen Yin Temple","tradition":"buddhist","country_code":"gb"}},{"type":"Feature","geometry":{"type":"Point","coordinates":[0.0251953,51.5650872]},"properties":{"name":"Wat Buddharam","tradition":"buddhist","country_code":"gb"}},{"type":"Feature","geometry":{"type":"Point","coordinates":[-0.4012119,54.2791009]},"properties":{"name":"Kagyu Samye Dzong - Tibetan Buddhist Meditation Centre","tradition":"buddhist","country_code":"gb"}},{"type":"Feature","geometry":{"type":"Point","coordinates":[-2.8007282,54.0463711]},"properties":{"name":"Kadampa Meditation Centre","tradition":"buddhist","addr:street":"King Street","addr:housenumber":"93","addr:city":"Lancaster","addr:postcode":"LA1 1RH","country_code":"gb","website":"https://meditationinlancaster.org/"}},{"type":"Feature","geometry":{"type":"Point","coordinates":[-3.1676282,51.4869611]},"properties":{"name":"Cardiff Buddhist Centre","tradition":"buddhist","addr:street":"Saint Peter's Street","addr:housenumber":"12","addr:city":"Cardiff","addr:postcode":"CF24 3BA","country_code":"gb","phone":"+442920462492","website":"https://www.cardiffbuddhistcentre.com/"}},{"type":"Feature","geometry":{"type":"Point","coordinates":[-0.1161865,51.49043]},"properties":{"name":"Diamond Way Buddhism","tradition":"buddhist","addr:street":"Black Prince Road","addr:housenumber":"39","addr:city":"London","addr:postcode":"SE11 6JJ","country_code":"gb","website":"https://www.buddhism-london.org"}},{"type":"Feature","geometry":{"type":"Point","coordinates":[-0.319999,51.604444]},"properties":{"name":"Mahamevnawa London","tradition":"buddhist","denomination":"theravada","addr:street":"Vernon Drive","addr:housenumber":"56","addr:city":"Stanmore","addr:postcode":"HA7 2BT","addr:country":"GB","country_code":"gb","website":"https://mahamevnawaimc.org/"}},{"type":"Feature","geometry":{"type":"Point","coordinates":[-0.2854229,51.5032931]},"properties":{"name":"Three Wheels Shin Buddhist Temple","tradition":"buddhist","denomination":"mahayana","addr:street":"Carbery Avenue","addr:housenumber":"55","addr:city":"London","addr:postcode":"W3 9AB","addr:country":"GB","country_code":"gb","website":"https://threewheels.org.uk/"}},{"type":"Feature","geometry":{"type":"Point","coordinates":[-1.5391968,53.7957716]},"properties":{"name":"Kadampa Meditation Centre","tradition":"buddhist","addr:street":"Assembly Street","addr:city":"Leeds","addr:postcode":"LS2 7DE","country_code":"gb","website":"https://www.meditationinleeds.org/"}},{"type":"Feature","geometry":{"type":"Point","coordinates":[-2.9309635,54.8948162]},"properties":{"name":"Uma Kadampa Meditation Centre","tradition":"buddhist","addr:street":"Spencer Street","addr:housenumber":"16-18","addr:city":"Carlisle","addr:postcode":"CA1 1BG","country_code":"gb"}},{"type":"Feature","geometry":{"type":"Point","coordinates":[-1.136991,52.6350111]},"properties":{"name":"Nagarjuna Kadampa Buddhist Centre","tradition":"buddhist","country_code":"gb"}},{"type":"Feature","geometry":{"type":"Point","coordinates":[-0.1590596,51.4820165]},"properties":{"name":"Peace Pagoda","tradition":"buddhist","country_code":"gb"}},{"type":"Feature","geometry":{"type":"Point","coordinates":[-0.61711,51.3139159]},"properties":{"name":"Wat Phra Dhammakaya London","tradition":"buddhist","addr:city":"Woking","addr:postcode":"GU21 2TG","country_code":"gb"}},{"type":"Feature","geometry":{"type":"Point","coordinates":[-0.7253493,52.0577134]},"properties":{"name":"Peace Pagoda","tradition":"buddhist","country_code":"gb"}},{"type":"Feature","geometry":{"type":"Point","coordinates":[-2.7377483,53.3408476]},"properties":{"name":"Wat Phra Singh","tradition":"buddhist","country_code":"gb"}},{"type":"Feature","geometry":{"type":"Point","coordinates":[-0.2205463,51.4307157]},"properties":{"name":"Buddhapadipa Temple","tradition":"buddhist","denomination":"thai","addr:street":"Calonne Road","addr:housenumber":"14","country_code":"gb"}},{"type":"Feature","geometry":{"type":"Point","coordinates":[-0.2225912,51.5466174]},"properties":{"name":"True Buddha Temple","tradition":"buddhist","country_code":"gb"}},{"type":"Feature","geometry":{"type":"Point","coordinates":[-1.8898932,52.4518591]},"properties":{"name":"Birmingham Buddhist Centre","tradition":"buddhist","addr:street":"Park Road","addr:housenumber":"11","addr:city":"Birmingham","country_code":"gb","website":"https://www.birminghambuddhistcentre.org.uk/"}},{"type":"Feature","geometry":{"type":"Point","coordinates":[-1.9326764,52.4791758]},"properties":{"name":"The Dhammatalaka Pagoda","tradition":"buddhist","country_code":"gb"}},{"type":"Feature","geometry":{"type":"Point","coordinates":[-0.5215192,51.7922054]},"properties":{"name":"Amaravati Monastery","tradition":"buddhist","denomination":"theravada","addr:street":"Saint Margarets Lane","addr:city":"Great Gaddesden","addr:postcode":"HP1 3BZ","addr:country":"GB","country_code":"gb","website":"https://www.amaravati.org/"}},{"type":"Feature","geometry":{"type":"Point","coordinates":[-0.9843823,51.450121]},"properties":{"name":"Shantideva Buddhist Centre","tradition":"buddhist","addr:street":"Bath Road","addr:housenumber":"9","addr:city":"Reading","country_code":"gb"}},{"type":"Feature","geometry":{"type":"Point","coordinates":[-1.9272541,52.4983498]},"properties":{"name":"Vaishali Buddha Vihara","tradition":"buddhist","addr:street":"Factory Road","addr:housenumber":"21","addr:city":"Birmingham","addr:postcode":"B18 5JU","country_code":"gb"}},{"type":"Feature","geometry":{"type":"Point","coordinates":[-1.9463105,52.5061778]},"properties":{"name":"Tu Dam Nat Midland Buddhist Association","tradition":"buddhist","addr:street":"Holyhead Road","addr:housenumber":"34","addr:city":"Birmingham","country_code":"gb"}},{"type":"Feature","geometry":{"type":"Point","coordinates":[-3.0689858,54.1736107]},"properties":{"name":"Manjushri Kadampa Meditation Centre","tradition":"buddhist","country_code":"gb","website":"https://manjushri.org/"}},{"type":"Feature","geometry":{"type":"Point","coordinates":[-1.1446947,52.9525708]},"properties":{"name":"Nottingham Buddist Centre","tradition":"buddhist","addr:street":"St Marys Place","addr:housenumber":"9","addr:city":"Nottingham","addr:postcode":"NG1 1PH","country_code":"gb","website":"https://nottinghambuddhistcentre.org/"}},{"type":"Feature","geometry":{"type":"Point","coordinates":[-0.5219709,51.7922952]},"properties":{"name":"Amaravati Temple","tradition":"buddhist","country_code":"gb"}},{"type":"Feature","geometry":{"type":"Point","coordinates":[0.134583,52.2079375]},"properties":{"name":"Cambridge Buddhist Centre","tradition":"buddhist","addr:street":"Newmarket Road","addr:housenumber":"38","addr:city":"Cambridge","addr:postcode":"CB5 8DT","country_code":"gb"}},{"type":"Feature","geometry":{"type":"Point","coordinates":[-2.5841215,51.4730184]},"properties":{"name":"Sakya Buddhist Centre","tradition":"buddhist","addr:street":"Sommerville Road","addr:housenumber":"121","addr:city":"Bristol","addr:postcode":"BS6 5BX","country_code":"gb"}},{"type":"Feature","geometry":{"type":"Point","coordinates":[-3.1903846,55.2828846]},"properties":{"name":"Purelands Retreat Centre","tradition":"buddhist","denomination":"kagyu_karamapa","country_code":"gb"}},{"type":"Feature","geometry":{"type":"Point","coordinates":[-2.0610745,51.9051318]},"properties":{"name":"Akanishta Kadampa Buddhist Centre","tradition":"buddhist","addr:street":"Whaddon Road","addr:housenumber":"59","country_code":"gb","phone":"+44 1242 269807","website":"https://meditationincheltenham.org.uk/"}},{"type":"Feature","geometry":{"type":"Point","coordinates":[-0.0745654,51.4958016]},"properties":{"name":"Kagyu Samye Dzong London","tradition":"buddhist","denomination":"tibetan","addr:street":"Spa Road","addr:housenumber":"15","country_code":"gb"}},{"type":"Feature","geometry":{"type":"Point","coordinates":[-2.5903027,51.477808]},"properties":{"name":"Bristol Buddhist Centre","tradition":"buddhist","addr:street":"Gloucester Road","addr:housenumber":"162","addr:city":"Bristol","addr:postcode":"BS7 8NT","country_code":"gb","phone":"+44 117 924 9991"}},{"type":"Feature","geometry":{"type":"Point","coordinates":[1.0610135,51.2870339]},"properties":{"name":"Jampel Kadampa Buddhist Centre","tradition":"buddhist","addr:street":"Cherry Garden Road","addr:housenumber":"26","addr:city":"Canterbury","addr:postcode":"CT2 8EP","addr:country":"GB","country_code":"gb"}},{"type":"Feature","geometry":{"type":"Point","coordinates":[0.9040401,51.885517]},"properties":{"name":"Colchester Buddist Centre","tradition":"buddhist","addr:street":"Portland Road","addr:housenumber":"2","addr:city":"Colchester","addr:postcode":"CO2 7EH","country_code":"gb"}},{"type":"Feature","geometry":{"type":"Point","coordinates":[-0.2563082,51.4968979]},"properties":{"name":"London Buddhist Vihara","tradition":"buddhist","country_code":"gb","website":"http://www.londonbuddhistvihara.org/"}},{"type":"Feature","geometry":{"type":"Point","coordinates":[-7.3216383,54.9947499]},"properties":{"name":"Lamrim Kadampa Buddhist Centre","tradition":"buddhist","addr:street":"Pump Street","addr:housenumber":"11","country_code":"gb"}},{"type":"Feature","geometry":{"type":"Point","coordinates":[-3.5196388,50.734359]},"properties":{"name":"Pure Land Buddhist Centre","tradition":"buddhist","addr:street":"Union Road","addr:housenumber":"55","addr:city":"Exeter","addr:postcode":"EX4 6HU","country_code":"gb"}},{"type":"Feature","geometry":{"type":"Point","coordinates":[-1.2500542,51.7336176]},"properties":{"name":"Oxford Buddha Vihara","tradition":"buddhist","addr:street":"Abingdon Road","addr:housenumber":"356-358","addr:city":"Oxford","addr:postcode":"OX1 4TQ","country_code":"gb","website":"https://www.oxfordbuddhavihara.org.uk/"}},{"type":"Feature","geometry":{"type":"Point","coordinates":[-1.5610232,53.8180719]},"properties":{"name":"WAT Buddharam Leeds","tradition":"buddhist","addr:street":"Cliff Road","addr:housenumber":"45","addr:city":"Leeds","addr:postcode":"LS6 2ET","country_code":"gb"}},{"type":"Feature","geometry":{"type":"Point","coordinates":[-0.7436223,53.9383535]},"properties":{"name":"Madhyamaka Buddhist Centre","tradition":"buddhist","denomination":"kadampa","country_code":"gb"}},{"type":"Feature","geometry":{"type":"Point","coordinates":[-1.8042475,52.7484662]},"properties":{"name":"Wat Mahathat","tradition":"buddhist","country_code":"gb"}},{"type":"Feature","geometry":{"type":"Point","coordinates":[-1.8040266,52.7481336]},"properties":{"name":"Wat Mahathat","tradition":"buddhist","addr:street":"Alrewas Road","addr:city":"Burton-on-Trent","addr:postcode":"DE13 7HR","country_code":"gb"}},{"type":"Feature","geometry":{"type":"Point","coordinates":[-3.1892812,55.2885433]},"properties":{"name":"Amithaba Shrine","tradition":"buddhist","denomination":"karma_kagyu","country_code":"gb"}},{"type":"Feature","geometry":{"type":"Point","coordinates":[-2.5896666,51.4774195]},"properties":{"name":"Amitabha Buddhist Meditation Centre","tradition":"buddhist","addr:street":"Gloucester Road","addr:city":"Bristol","addr:postcode":"BS7 8NX","country_code":"gb"}},{"type":"Feature","geometry":{"type":"Point","coordinates":[-3.167846,55.9755562]},"properties":{"name":"Kagyu Samye Dzong (Tibetan Buddhist Meditation Centre)","tradition":"buddhist","country_code":"gb"}},{"type":"Feature","geometry":{"type":"Point","coordinates":[-2.1178333,52.4817274]},"properties":{"name":"Fat Yue Temple","tradition":"buddhist","country_code":"gb"}},{"type":"Feature","geometry":{"type":"Point","coordinates":[-2.1433801,52.5779857]},"properties":{"name":"Wolverhampton Buddhist Maha Vihara","tradition":"buddhist","addr:street":"Owen Road","addr:city":"Wolverhampton","addr:postcode":"WV3 0HT","country_code":"gb"}},{"type":"Feature","geometry":{"type":"Point","coordinates":[-3.2453833,55.9250598]},"properties":{"name":"Dhamma Padipa Temple","tradition":"buddhist","country_code":"gb"}},{"type":"Feature","geometry":{"type":"Point","coordinates":[-2.5312247,53.2530898]},"properties":{"name":"Odiyana Kadampa Buddhist Centre","tradition":"buddhist","addr:street":"Chester Road","addr:housenumber":"163","addr:city":"Northwich","addr:postcode":"CW8 4AG","country_code":"gb","phone":"+44 1606 77034","website":"https://meditationincheshire.org/"}},{"type":"Feature","geometry":{"type":"Point","coordinates":[-2.329676,52.1142184]},"properties":{"name":"Bright Earth","tradition":"buddhist","addr:street":"Worcester Road","addr:housenumber":"34","addr:postcode":"WR14 4AA","country_code":"gb"}},{"type":"Feature","geometry":{"type":"Point","coordinates":[-1.613723,52.8890893]},"properties":{"name":"Ashe Hall","tradition":"buddhist","addr:street":"Ash Lane","addr:city":"Derby","addr:postcode":"DE65 6HT","country_code":"gb"}},{"type":"Feature","geometry":{"type":"Point","coordinates":[-2.2510231,51.346418]},"properties":{"name":"Ton Boon Trust","tradition":"buddhist","addr:street":"Bridge Street","addr:housenumber":"24","addr:city":"Bradford on Avon","addr:postcode":"BA15 1BY","country_code":"gb","website":"http://tonboontrust.com/"}},{"type":"Feature","geometry":{"type":"Point","coordinates":[-0.1167145,51.5404209]},"properties":{"name":"RIGPA Tibetan Buddhist Centre","tradition":"buddhist","country_code":"gb"}},{"type":"Feature","geometry":{"type":"Point","coordinates":[0.4775099,50.8407725]},"properties":{"name":"Maitreya Kadampa Buddhist Centre","tradition":"buddhist","denomination":"kadampa","addr:street":"Sea Road","addr:housenumber":"13","addr:city":"Bexhill-on-Sea","addr:postcode":"TN40 1EE","country_code":"gb","phone":"+44 1424 733761","website":"http://meditateinsussex.org/"}},{"type":"Feature","geometry":{"type":"Point","coordinates":[-0.7562507,51.2486401]},"properties":{"name":"The Buddhist Community Centre UK","tradition":"buddhist","addr:street":"High Street","addr:housenumber":"8","addr:city":"Aldeshot","addr:postcode":"GU11 1TW","country_code":"gb"}},{"type":"Feature","geometry":{"type":"Point","coordinates":[-0.7261444,52.0555789]},"properties":{"name":"Nipponzan Myohoji","tradition":"buddhist","addr:city":"Milton Keynes","addr:postcode":"MK15 0BG","addr:country":"GB","country_code":"gb"}},{"type":"Feature","geometry":{"type":"Point","coordinates":[0.0015721,51.6500173]},"properties":{"name":"Buddist Sala","tradition":"buddhist","addr:city":"London","addr:postcode":"E4 7QW","country_code":"gb"}},{"type":"Feature","geometry":{"type":"Point","coordinates":[-1.5234606,54.9797673]},"properties":{"name":"Dhammakaya Meditation Centre of Newcastle","tradition":"buddhist","addr:street":"Church Street","addr:city":"Hebburn","addr:postcode":"NE31 1DR","country_code":"gb","phone":"+44 191 420 3981","website":"https://meditationnewcastle.co.uk/"}},{"type":"Feature","geometry":{"type":"Point","coordinates":[-1.1715816,52.6095887]},"properties":{"name":"Leicester Buddhist Vihara","tradition":"buddhist","denomination":"theravada","addr:street":"Una Avenue","addr:housenumber":"9","addr:city":"Leicester","addr:postcode":"LE3 2GS","country_code":"gb","website":"https://leicesterbuddhistvihara.co.uk/"}},{"type":"Feature","geometry":{"type":"Point","coordinates":[-3.6727076,50.413652]},"properties":{"name":"The Barn","tradition":"buddhist","country_code":"gb"}},{"type":"Feature","geometry":{"type":"Point","coordinates":[-0.9759931,51.4626989]},"properties":{"name":"Sakya Ling Tibetan Buddhist Centre","tradition":"buddhist","addr:street":"Swansea Road","addr:housenumber":"97a","addr:city":"Reading","country_code":"gb","website":"http://www.sakyalingreading.co.uk/"}},{"type":"Feature","geometry":{"type":"Point","coordinates":[-2.6016373,51.440865]},"properties":{"name":"Lam Rim Centre","tradition":"buddhist","addr:street":"Victoria Place","addr:housenumber":"12","addr:city":"Bristol","addr:postcode":"BS3 3BP","country_code":"gb"}},{"type":"Feature","geometry":{"type":"Point","coordinates":[-0.1381784,51.5170605]},"properties":{"name":"Fo Guang Shan","tradition":"buddhist","addr:street":"Margaret Street","addr:housenumber":"84","addr:city":"London","country_code":"gb","website":"https://londonfgs.org.uk/"}},{"type":"Feature","geometry":{"type":"Point","coordinates":[1.0153337,52.5175845]},"properties":{"name":"Amoghasiddhi Buddhist Centre","tradition":"buddhist","addr:street":"Queens Square","addr:city":"Attleborough","addr:postcode":"NR17 2AE","country_code":"gb","website":"https://meditateinnorfolk.org/"}},{"type":"Feature","geometry":{"type":"Point","coordinates":[-1.613183,52.8897203]},"properties":{"name":"Tara Kadampa Meditation Centre","tradition":"buddhist","addr:street":"Ash Lane","addr:city":"Derby","addr:postcode":"DE65 6HT","country_code":"gb","website":"https://tarakmc.org/"}},{"type":"Feature","geometry":{"type":"Point","coordinates":[-2.2614254,53.4228345]},"properties":{"name":"Kagyu Ling Buddhist Centre","tradition":"buddhist","addr:street":"Manor Drive","addr:housenumber":"45","country_code":"gb"}},{"type":"Feature","geometry":{"type":"Point","coordinates":[-0.2092758,51.4025174]},"properties":{"name":"Kadampa Meditation Centre","tradition":"buddhist","addr:street":"Ashridge Way","addr:housenumber":"1A","addr:city":"Morden","addr:postcode":"SM4 4EF","country_code":"gb","website":"https://kmclondon.org/"}},{"type":"Feature","geometry":{"type":"Point","coordinates":[-0.0956214,51.4164049]},"properties":{"name":"Linh Son Temple","tradition":"buddhist","addr:street":"Beulah Hill","addr:housenumber":"76","addr:city":"London","addr:postcode":"SE19 3EW","country_code":"gb"}},{"type":"Feature","geometry":{"type":"Point","coordinates":[-1.0119184,52.3761191]},"properties":{"name":"Nagarjuna Kadampa Meditation Centre","tradition":"buddhist","addr:street":"Naseby Road","addr:city":"Northampton","addr:postcode":"NN6 8SW","country_code":"gb"}},{"type":"Feature","geometry":{"type":"Point","coordinates":[-1.2353575,51.7424834]},"properties":{"name":"Thrangu House","tradition":"buddhist","addr:street":"Magdalen Road","addr:housenumber":"42","addr:city":"Oxford","addr:postcode":"OX4 1RB","country_code":"gb","phone":"+44 1865 241555","website":"http://www.thranguhouse.org.uk/"}},{"type":"Feature","geometry":{"type":"Point","coordinates":[-4.1342609,50.3823599]},"properties":{"name":"Kadampa Meditation Centre","tradition":"buddhist","addr:street":"Mutley Plain","addr:housenumber":"48","addr:city":"Plymouth","addr:postcode":"PL4 6LL","country_code":"gb","website":"https://meditationinplymouth.org/"}},{"type":"Feature","geometry":{"type":"Point","coordinates":[-2.1723754,57.1442685]},"properties":{"name":"Thai Buddharam Temple","tradition":"buddhist","addr:street":"Queen's Road","addr:city":"Aberdeen","addr:postcode":"AB15 6YX","country_code":"gb","website":"https://www.thaibuddharam.org.uk/"}},{"type":"Feature","geometry":{"type":"Point","coordinates":[0.0256072,51.5338556]},"properties":{"name":"Sri Sambodhi Buddhist Meditation Center","tradition":"buddhist","addr:street":"Dacre Road","addr:housenumber":"84","country_code":"gb"}},{"type":"Feature","geometry":{"type":"Point","coordinates":[-2.3680584,53.5311002]},"properties":{"name":"Wat Sriratanaram","tradition":"buddhist","addr:street":"Moss Lane","addr:city":"Bolton","addr:postcode":"BL4 8SF","country_code":"gb"}},{"type":"Feature","geometry":{"type":"Point","coordinates":[-2.2819451,53.4410466]},"properties":{"name":"Kadampa Meditation Centre","tradition":"buddhist","addr:street":"High Lane","addr:housenumber":"76","addr:postcode":"M21 9XF","country_code":"gb","website":"https://kmcmanchester.org/"}},{"type":"Feature","geometry":{"type":"Point","coordinates":[-3.9610752,51.6207349]},"properties":{"name":"Kadampa Meditation Centre Wales","tradition":"buddhist","denomination":"new_kadampa_tradition","addr:street":"Ffynone Road","addr:city":"Swansea","addr:postcode":"SA1 6DE","country_code":"gb","phone":"+44 1792 458245","website":"https://meditationinwales.org"}},{"type":"Feature","geometry":{"type":"Point","coordinates":[-0.2671148,51.5842396]},"properties":{"name":"Kingsbury Buddhist Temple - Sri Saddhatissa International Buddhist Centre","tradition":"buddhist","denomination":"theravada","addr:street":"Kingsbury Road","addr:housenumber":"308-311","addr:city":"London","addr:postcode":"NW9 9PE","country_code":"gb"}},{"type":"Feature","geometry":{"type":"Point","coordinates":[-0.2634768,51.5655467]},"properties":{"name":"London Burmese Buddhist Vihara","tradition":"buddhist","denomination":"theravada","addr:street":"Old Church Lane","addr:housenumber":"1","addr:city":"London","addr:postcode":"NW9 8TG","country_code":"gb"}},{"type":"Feature","geometry":{"type":"Point","coordinates":[-3.1884705,55.2896148]},"properties":{"name":"Samye Ling Temple","tradition":"buddhist","denomination":"karma_kagyu","country_code":"gb"}}]}