{"type":"FeatureCollection","features":[{"type":"Feature","geometry":{"type":"Point","coordinates":[102.1398417,19.9013828]},"properties":{"name":"Wat Longkhun","tradition":"buddhist","country_code":"la"}},{"type":"Feature","geometry":{"type":"Point","coordinates":[102.624606,17.9381094]},"properties":{"name":"ວັດສີອຳມຜອນ","name:en":"Wat Siamphon","tradition":"buddhist","country_code":"la"}},{"type":"Feature","geometry":{"type":"Point","coordinates":[102.6192642,17.9671053]},"properties":{"name:en":"Phat Tich Temple","tradition":"buddhist","country_code":"la"}},{"type":"Feature","geometry":{"type":"Point","coordinates":[102.624195,17.9695149]},"properties":{"name":"Wat Phonexay","tradition":"buddhist","country_code":"la"}},{"type":"Feature","geometry":{"type":"Point","coordinates":[102.622779,17.9599052]},"properties":{"name":"Wat Dong Palane","tradition":"buddhist","country_code":"la"}},{"type":"Feature","geometry":{"type":"Point","coordinates":[102.6144824,17.9593263]},"properties":{"name":"ວັດເກົ້າຍອດ","name:en":"Wat Kaonyot","tradition":"buddhist","country_code":"la"}},{"type":"Feature","geometry":{"type":"Point","coordinates":[102.6017653,17.9687286]},"properties":{"name":"ວັດ ບາງ ລອງ","name:en":"Chua Bang Long","tradition":"buddhist","country_code":"la"}},{"type":"Feature","geometry":{"type":"Point","coordinates":[102.6151192,17.9732215]},"properties":{"name":"ສີສະຫວາດ","name:en":"Vat Sīsavāt","tradition":"buddhist","denomination":"theravada","addr:city":"Canthabūlī","country_code":"la"}},{"type":"Feature","geometry":{"type":"Point","coordinates":[102.6030313,17.9719305]},"properties":{"name":"ວັດ ຂົວຫຼວງ","tradition":"buddhist","country_code":"la"}},{"type":"Feature","geometry":{"type":"Point","coordinates":[102.62078,17.9638651]},"properties":{"name":"Wat Ban Fay","name:en":"Wat Ban Fay","tradition":"buddhist","country_code":"la"}},{"type":"Feature","geometry":{"type":"Point","coordinates":[102.6308419,17.9552904]},"properties":{"name":"ວັດ ສະພານທອງເໜືອ","name:en":"Wat Saphanthongneua","tradition":"buddhist","country_code":"la"}},{"type":"Feature","geometry":{"type":"Point","coordinates":[102.626599,17.9205343]},"properties":{"name":"ວັດສ້າງເຫວີຍ","name:en":"Wat Seng Veuay","tradition":"buddhist","country_code":"la"}},{"type":"Feature","geometry":{"type":"Point","coordinates":[102.641938,17.9613469]},"properties":{"name":"ວັດໂພນທັນເໜືອ","name:en":"Wat Phonthan Neua","tradition":"buddhist","country_code":"la"}},{"type":"Feature","geometry":{"type":"Point","coordinates":[102.6174445,17.9544265]},"properties":{"name":"ວັດທາດກາວ","name:en":"Wat Thatkao","tradition":"buddhist","country_code":"la"}},{"type":"Feature","geometry":{"type":"Point","coordinates":[102.625876,17.9452433]},"properties":{"name":"Vat Mahāphutthavongsā Pā Lūang","name:en":"Mahābuddhavaṁsa Royal Forest Monastery","tradition":"buddhist","denomination":"theravada","country_code":"la"}},{"type":"Feature","geometry":{"type":"Point","coordinates":[102.6081601,18.0002525]},"properties":{"name":"ວັດບ້ານດອນແດງ","name:en":"Wat Ban Dondèng","tradition":"buddhist","country_code":"la"}},{"type":"Feature","geometry":{"type":"Point","coordinates":[102.4164893,19.5085711]},"properties":{"name":"Wat Phakeng","name:en":"Wat Phakeng","tradition":"buddhist","country_code":"la"}},{"type":"Feature","geometry":{"type":"Point","coordinates":[102.6162445,17.9779315]},"properties":{"name":"Vat","tradition":"buddhist","country_code":"la"}},{"type":"Feature","geometry":{"type":"Point","coordinates":[102.6161295,17.9235048]},"properties":{"name":"WatSop","tradition":"buddhist","country_code":"la"}},{"type":"Feature","geometry":{"type":"Point","coordinates":[102.6188318,17.9194103]},"properties":{"name":"ວັດຈອມທອງ","tradition":"buddhist","country_code":"la"}},{"type":"Feature","geometry":{"type":"Point","coordinates":[102.6180832,17.9226976]},"properties":{"name":"Phoxay","tradition":"buddhist","country_code":"la"}},{"type":"Feature","geometry":{"type":"Point","coordinates":[102.6191265,17.9352137]},"properties":{"name":"ວັດນັກ ວັດນັກ","name:en":"Watnak Nyai","tradition":"buddhist","country_code":"la"}},{"type":"Feature","geometry":{"type":"Point","coordinates":[105.8545595,14.116437]},"properties":{"name":"Wat Phouang Keo","tradition":"buddhist","country_code":"la"}},{"type":"Feature","geometry":{"type":"Point","coordinates":[102.1359885,19.8905442]},"properties":{"name":"Wat Pa Houak","tradition":"buddhist","country_code":"la"}},{"type":"Feature","geometry":{"type":"Point","coordinates":[102.1346125,19.8794015]},"properties":{"name":"Wat Manorom","name:en":"Wat Manorom","tradition":"buddhist","country_code":"la"}},{"type":"Feature","geometry":{"type":"Point","coordinates":[103.3675722,19.334766]},"properties":{"name:en":"That Foun","tradition":"buddhist","country_code":"la"}},{"type":"Feature","geometry":{"type":"Point","coordinates":[102.6285478,17.9495758]},"properties":{"name":"Wat Saphanthong Tai","tradition":"buddhist","country_code":"la"}},{"type":"Feature","geometry":{"type":"Point","coordinates":[103.1683257,18.2791031]},"properties":{"name":"Wat Phabat Phonsane","name:en":"Wat Phabat Phonsane","tradition":"buddhist","country_code":"la"}},{"type":"Feature","geometry":{"type":"Point","coordinates":[103.178487,18.2678272]},"properties":{"name":"Wat Phonsane","name:en":"Wat Phonsane","tradition":"buddhist","country_code":"la"}},{"type":"Feature","geometry":{"type":"Point","coordinates":[103.3641492,19.3327421]},"properties":{"name:en":"Wat Si Phoum","tradition":"buddhist","country_code":"la"}},{"type":"Feature","geometry":{"type":"Point","coordinates":[105.797823,15.1217807]},"properties":{"name":"Wat Luang","tradition":"buddhist","country_code":"la"}},{"type":"Feature","geometry":{"type":"Point","coordinates":[105.8087296,15.1214152]},"properties":{"name":"Wat Tham Fai (Wat Pha Bat)","tradition":"buddhist","country_code":"la"}},{"type":"Feature","geometry":{"type":"Point","coordinates":[105.5795206,15.1619565]},"properties":{"name":"Wat","tradition":"buddhist","country_code":"la"}},{"type":"Feature","geometry":{"type":"Point","coordinates":[101.1506803,21.1899231]},"properties":{"name":"Wat Xieng Chai","name:en":"Wat Xieng Chai","tradition":"buddhist","country_code":"la"}},{"type":"Feature","geometry":{"type":"Point","coordinates":[101.1504503,21.1943518]},"properties":{"name":"Wat Xieng In","tradition":"buddhist","country_code":"la"}},{"type":"Feature","geometry":{"type":"Point","coordinates":[102.1386242,19.891668]},"properties":{"name":"Wat Prah Buddhabat","name:en":"Buddha’s Footprint Temple","tradition":"buddhist","country_code":"la"}},{"type":"Feature","geometry":{"type":"Point","coordinates":[102.138247,19.8935828]},"properties":{"name":"Wat Paphaimisaiyaram","name:en":"Wat Pa Phay","tradition":"buddhist","country_code":"la"}},{"type":"Feature","geometry":{"type":"Point","coordinates":[102.1359871,19.8909005]},"properties":{"name":"Wat Pa Houak","tradition":"buddhist","country_code":"la"}},{"type":"Feature","geometry":{"type":"Point","coordinates":[103.5682382,19.6749008]},"properties":{"name":"Buddha","tradition":"buddhist","country_code":"la"}},{"type":"Feature","geometry":{"type":"Point","coordinates":[102.1471951,19.9066753]},"properties":{"name":"Wat Hadsiao","tradition":"buddhist","country_code":"la"}},{"type":"Feature","geometry":{"type":"Point","coordinates":[102.1348208,19.8683697]},"properties":{"name":"Wat Naluang","tradition":"buddhist","country_code":"la"}},{"type":"Feature","geometry":{"type":"Point","coordinates":[101.6924384,19.2641864]},"properties":{"name:en":"ອານຸສາວິລີ ນັກຮົບນິລະນາມ","tradition":"buddhist","country_code":"la"}},{"type":"Feature","geometry":{"type":"Point","coordinates":[102.6709485,17.9367653]},"properties":{"name":"ວັດ ຊຽງດາ","name:en":"Wat Xiangda","tradition":"buddhist","country_code":"la"}},{"type":"Feature","geometry":{"type":"Point","coordinates":[102.6423364,17.9154053]},"properties":{"name":"ວັດ ດົງສະຫວາດ","name:en":"Wat Dongsavath","tradition":"buddhist","country_code":"la"}},{"type":"Feature","geometry":{"type":"Point","coordinates":[102.703028,17.9434821]},"properties":{"name":"ວັດ","name:en":"Wat","tradition":"buddhist","country_code":"la"}},{"type":"Feature","geometry":{"type":"Point","coordinates":[105.7458158,15.165206]},"properties":{"name":"Wat Chomphet","tradition":"buddhist","country_code":"la"}},{"type":"Feature","geometry":{"type":"Point","coordinates":[102.5337727,18.3703753]},"properties":{"name":"ວັດບ້ານຖິ່ນຍຸງ","tradition":"buddhist","country_code":"la"}},{"type":"Feature","geometry":{"type":"Point","coordinates":[102.5476024,18.3649595]},"properties":{"name":"ວັດ ບ້ານວຽງຄຳ","tradition":"buddhist","country_code":"la"}},{"type":"Feature","geometry":{"type":"Point","coordinates":[102.5531088,18.3697677]},"properties":{"name":"ວັດປ່າໄຜ່ໝາມວຽງຄຳ","tradition":"buddhist","country_code":"la"}},{"type":"Feature","geometry":{"type":"Point","coordinates":[102.5028945,18.14375]},"properties":{"name":"ວັດບ້ານອີໄລເໜືອ","tradition":"buddhist","country_code":"la"}},{"type":"Feature","geometry":{"type":"Point","coordinates":[102.5068584,18.1399418]},"properties":{"name":"ວັດບ້ານອີໄລໄຕ້","tradition":"buddhist","country_code":"la"}},{"type":"Feature","geometry":{"type":"Point","coordinates":[102.5001627,18.1543725]},"properties":{"name":"ວັດບ້ານສອງຂົວກາງແສນ","tradition":"buddhist","country_code":"la"}},{"type":"Feature","geometry":{"type":"Point","coordinates":[102.6025026,17.98774]},"properties":{"name":"Wat Nongbouathong","tradition":"buddhist","country_code":"la"}},{"type":"Feature","geometry":{"type":"Point","coordinates":[102.642648,17.9554187]},"properties":{"name":"ວັດໂພນທັນໃຕ້","tradition":"buddhist","country_code":"la"}},{"type":"Feature","geometry":{"type":"Point","coordinates":[102.7468184,17.8922161]},"properties":{"name":"ຈັດສີຣັຕດະນາຣາມ ທ່າເດື່ອ","tradition":"buddhist","country_code":"la"}},{"type":"Feature","geometry":{"type":"Point","coordinates":[102.1506629,19.8830926]},"properties":{"name":"PhraThat Khong Santi Chedi","tradition":"buddhist","country_code":"la"}},{"type":"Feature","geometry":{"type":"Point","coordinates":[102.1492316,19.9002659]},"properties":{"name:en":"Wat Xiengleck","tradition":"buddhist","country_code":"la"}},{"type":"Feature","geometry":{"type":"Point","coordinates":[102.152572,19.9015553]},"properties":{"name":"ວັດຊ່າງຄ້ອງ","name:en":"Wat Xangkhong","tradition":"buddhist","denomination":"theravada","country_code":"la"}},{"type":"Feature","geometry":{"type":"Point","coordinates":[102.1544415,19.9031064]},"properties":{"name":"Wat Nongxayhkounsavang","tradition":"buddhist","country_code":"la"}},{"type":"Feature","geometry":{"type":"Point","coordinates":[102.1464416,19.8866287]},"properties":{"name":"Wat Taohai","tradition":"buddhist","country_code":"la"}},{"type":"Feature","geometry":{"type":"Point","coordinates":[102.1387893,19.8891566]},"properties":{"name:en":"Wat Aphay","tradition":"buddhist","country_code":"la"}},{"type":"Feature","geometry":{"type":"Point","coordinates":[101.976632,19.7773793]},"properties":{"name":"Wat Ou","tradition":"buddhist","country_code":"la"}},{"type":"Feature","geometry":{"type":"Point","coordinates":[101.9942541,19.7980647]},"properties":{"name":"Wat Thinkeo","tradition":"buddhist","country_code":"la"}},{"type":"Feature","geometry":{"type":"Point","coordinates":[102.0511974,19.8249345]},"properties":{"name":"Wat Nazao Sukharam","tradition":"buddhist","country_code":"la"}},{"type":"Feature","geometry":{"type":"Point","coordinates":[102.1987427,19.8802815]},"properties":{"name":"Wat Noun Sa Vath","tradition":"buddhist","country_code":"la"}},{"type":"Feature","geometry":{"type":"Point","coordinates":[105.851056,14.1068963]},"properties":{"name":"Vat Ban Na","tradition":"buddhist","country_code":"la"}},{"type":"Feature","geometry":{"type":"Point","coordinates":[105.8559151,14.1235288]},"properties":{"name":"Vat Sad Tha?","tradition":"buddhist","country_code":"la"}},{"type":"Feature","geometry":{"type":"Point","coordinates":[104.8070598,17.3502083]},"properties":{"name":"Ban Sikhottabong","name:en":"Pha That Sikhottabong","tradition":"buddhist","country_code":"la"}},{"type":"Feature","geometry":{"type":"Point","coordinates":[103.2311826,19.4539668]},"properties":{"name":"Stupa","tradition":"buddhist","country_code":"la"}},{"type":"Feature","geometry":{"type":"Point","coordinates":[103.2267247,19.4491489]},"properties":{"name":"Wat Suntiphab","tradition":"buddhist","country_code":"la"}},{"type":"Feature","geometry":{"type":"Point","coordinates":[103.2104035,19.452113]},"properties":{"name":"Vat Banthern","tradition":"buddhist","country_code":"la"}},{"type":"Feature","geometry":{"type":"Point","coordinates":[103.2053006,19.4406776]},"properties":{"name":"Wat Yon","tradition":"buddhist","country_code":"la"}},{"type":"Feature","geometry":{"type":"Point","coordinates":[102.6419136,17.9090121]},"properties":{"name":"ວັດຫນອງໄຮນ້ອຍ","name:en":"Nong Hai Noy Temple","tradition":"buddhist","country_code":"la"}},{"type":"Feature","geometry":{"type":"Point","coordinates":[105.8147274,14.8381433]},"properties":{"name":"Hong Nang Sida","name:en":"Hong Nang Sida Ruins","tradition":"buddhist","country_code":"la"}},{"type":"Feature","geometry":{"type":"Point","coordinates":[101.989838,20.691908]},"properties":{"name":"Wat Banjeng","name:en":"Wat Banjeng","tradition":"buddhist","country_code":"la"}},{"type":"Feature","geometry":{"type":"Point","coordinates":[102.6338487,17.9296789]},"properties":{"name":"ໍໂພນສະເມ້ກໄຊຍາຣາມ","name:en":"Phônsamék Xaignaram","tradition":"buddhist","country_code":"la"}},{"type":"Feature","geometry":{"type":"Point","coordinates":[102.6265578,17.9796143]},"properties":{"name":"Wat Pon Saath","tradition":"buddhist","country_code":"la"}},{"type":"Feature","geometry":{"type":"Point","coordinates":[102.6102465,17.9729711]},"properties":{"name":"ວັດ  ທົ່ງຂັນຄຳ","tradition":"buddhist","country_code":"la"}},{"type":"Feature","geometry":{"type":"Point","coordinates":[105.989496,13.9613853]},"properties":{"name":"Sacred Manikoth Tree","tradition":"buddhist","country_code":"la"}},{"type":"Feature","geometry":{"type":"Point","coordinates":[102.6097522,17.8885524]},"properties":{"name":"ວັດ ສີຮິມູາງ ຄູນ ບານ ພ້າວ","name:en":"Wat Sihimuang Khun Ban Phao","tradition":"buddhist","country_code":"la"}},{"type":"Feature","geometry":{"type":"Point","coordinates":[104.7583634,16.8211567]},"properties":{"name":"boudha temple","tradition":"buddhist","country_code":"la"}},{"type":"Feature","geometry":{"type":"Point","coordinates":[102.6503914,17.9216211]},"properties":{"name":"ວັດ ປະທຸມພອນ","name:en":"Wat Pathoumphon","tradition":"buddhist","country_code":"la"}},{"type":"Feature","geometry":{"type":"Point","coordinates":[102.6174644,20.5688568]},"properties":{"name":"Sop Houn Temple","tradition":"buddhist","country_code":"la"}},{"type":"Feature","geometry":{"type":"Point","coordinates":[101.132502,19.8932666]},"properties":{"name":"Watkokkor Mingmoungkhoun","tradition":"buddhist","country_code":"la"}},{"type":"Feature","geometry":{"type":"Point","coordinates":[104.9842741,18.1825012]},"properties":{"name:en":"Vat Oudom","tradition":"buddhist","country_code":"la"}},{"type":"Feature","geometry":{"type":"Point","coordinates":[102.6385939,17.991171]},"properties":{"name":"Wat Phonphanao","tradition":"buddhist","country_code":"la"}},{"type":"Feature","geometry":{"type":"Point","coordinates":[104.0393713,20.4191753]},"properties":{"name:en":"buddhist temple","tradition":"buddhist","country_code":"la"}},{"type":"Feature","geometry":{"type":"Point","coordinates":[102.6059345,17.976916]},"properties":{"name":"ວັດທົ່ງຕູມ","tradition":"buddhist","country_code":"la"}},{"type":"Feature","geometry":{"type":"Point","coordinates":[102.6510418,18.3636268]},"properties":{"name":"Wat Sawang Ban Phonhong Napai","tradition":"buddhist","country_code":"la"}},{"type":"Feature","geometry":{"type":"Point","coordinates":[102.436904,18.1209572]},"properties":{"name":"Wat Dane Soung","tradition":"buddhist","country_code":"la"}},{"type":"Feature","geometry":{"type":"Point","coordinates":[103.3641863,19.3323699]},"properties":{"name:en":"That Dam","tradition":"buddhist","country_code":"la"}},{"type":"Feature","geometry":{"type":"Point","coordinates":[103.365337,19.3352198]},"properties":{"name:en":"That Chom Phet","tradition":"buddhist","country_code":"la"}},{"type":"Feature","geometry":{"type":"Point","coordinates":[105.8071755,15.1165157]},"properties":{"name":"ຈັດ ຮອງຄະຍອມ","name:en":"Wat Hongkhayom","tradition":"buddhist","addr:street":"Th 38","country_code":"la"}},{"type":"Feature","geometry":{"type":"Point","coordinates":[102.1411241,19.9062337]},"properties":{"name":"Wat Kiu Nor Intharam","name:en":"Wat Kiunho","tradition":"buddhist","country_code":"la"}},{"type":"Feature","geometry":{"type":"Point","coordinates":[102.4774505,18.1143629]},"properties":{"name:en":"Xaigna Sanagnaram Ban Nagnang","tradition":"buddhist","country_code":"la"}},{"type":"Feature","geometry":{"type":"Point","coordinates":[102.5964191,17.9894017]},"properties":{"name":"ຕົ້ນຕະກູນ ສີຊົມຊື່ນ","name:en":"Tôntakoun Sixômxun","tradition":"buddhist","country_code":"la"}},{"type":"Feature","geometry":{"type":"Point","coordinates":[102.5420472,18.1007172]},"properties":{"name":"Vat Pā Nākhūnnǫi","name:en":"Nākhūnnǫi Forest Monastery","tradition":"buddhist","denomination":"theravada","country_code":"la"}},{"type":"Feature","geometry":{"type":"Point","coordinates":[101.1367459,19.8926628]},"properties":{"name":"Wat Si Chome Cheng Ban Pakbeng","tradition":"buddhist","denomination":"theravada","country_code":"la"}},{"type":"Feature","geometry":{"type":"Point","coordinates":[102.5188146,18.0612922]},"properties":{"name":"ໂພທິສົມພອນໄຊຍະຮານ ບ້ານປິກແຣດ","name:en":"Phôthisôm Phonxaignahan Ban Pikrèt","tradition":"buddhist","country_code":"la"}},{"type":"Feature","geometry":{"type":"Point","coordinates":[105.2491972,16.4231924]},"properties":{"name:en":"Wat Taleow","tradition":"buddhist","country_code":"la"}},{"type":"Feature","geometry":{"type":"Point","coordinates":[102.6167848,17.9751781]},"properties":{"name":"ວັດສີດຳດວນ","name:en":"Sīdamdūan Monastery","tradition":"buddhist","denomination":"theravada","addr:city":"Canthabūlī","country_code":"la"}},{"type":"Feature","geometry":{"type":"Point","coordinates":[102.1132042,19.8714089]},"properties":{"name":"ວັດສີສະຫວັນທເວະໂລກ","name:en":"Wat Sisavan Tevalok","tradition":"buddhist","country_code":"la"}},{"type":"Feature","geometry":{"type":"Point","coordinates":[102.5369594,18.4296246]},"properties":{"name":"ວັດບ້ານເມືອງເກົ່າ","tradition":"buddhist","country_code":"la"}},{"type":"Feature","geometry":{"type":"Point","coordinates":[102.5425652,18.3902561]},"properties":{"name":"ວັດບ້ານດອນກວດໃຕ້","tradition":"buddhist","country_code":"la"}},{"type":"Feature","geometry":{"type":"Point","coordinates":[102.5398498,18.4032543]},"properties":{"name":"ວັດບ້ານດອນກວດເໜືອ","tradition":"buddhist","country_code":"la"}},{"type":"Feature","geometry":{"type":"Point","coordinates":[102.5338279,18.4218895]},"properties":{"name":"ວັດບ້ານທ່າໂພໄຊ","tradition":"buddhist","country_code":"la"}},{"type":"Feature","geometry":{"type":"Point","coordinates":[105.8723918,14.8551835]},"properties":{"name":"ວັດຫລວງເກົ່າ","name:en":"Vat Louang Kao","tradition":"buddhist","country_code":"la"}},{"type":"Feature","geometry":{"type":"Point","coordinates":[102.6156274,17.9585653]},"properties":{"name":"City Pillar Shrine","tradition":"buddhist","country_code":"la"}},{"type":"Feature","geometry":{"type":"Point","coordinates":[105.8730294,14.8783584]},"properties":{"name:en":"Wat That","tradition":"buddhist","country_code":"la"}},{"type":"Feature","geometry":{"type":"Point","coordinates":[102.6426196,17.8687703]},"properties":{"name":"ວັດ ປາສາມາຄີທັມ","name:en":"Vat Pasamakhi Tham","tradition":"buddhist","country_code":"la"}},{"type":"Feature","geometry":{"type":"Point","coordinates":[102.6262025,17.8466547]},"properties":{"name":"ວັດ ໂພເງິນ ລຸວັນ ນະ ໂພ ທາ ຮາມ","name:en":"Wat Phô Ngeun Lou Vannaphôthaham","tradition":"buddhist","country_code":"la"}},{"type":"Feature","geometry":{"type":"Point","coordinates":[102.6343379,17.8403186]},"properties":{"name":"ວັດສິສະຫ່ວາງຫັມມຸງຄຸນ","name:en":"Vat Sisavang Ham Moung Khoun","tradition":"buddhist","country_code":"la"}},{"type":"Feature","geometry":{"type":"Point","coordinates":[102.6118735,17.8855944]},"properties":{"name":"ວັດ ໄຊຍະມຸຫູມ ກາງທົ່ງ","name:en":"Wat Xaignamou Houm Kangthông","tradition":"buddhist","country_code":"la"}},{"type":"Feature","geometry":{"type":"Point","coordinates":[102.6102603,17.9828553]},"properties":{"name":"ວັດສະຫວ່າງ ຮ້ນນາວາສ","tradition":"buddhist","country_code":"la"}},{"type":"Feature","geometry":{"type":"Point","coordinates":[102.7802644,17.9342751]},"properties":{"name":"ວັດໂພສີສົມພງນນາຣາມບ້ານທ່າພະເໝີງ","tradition":"buddhist","country_code":"la"}},{"type":"Feature","geometry":{"type":"Point","coordinates":[102.5144699,17.9996173]},"properties":{"name":"ວັດໂນນສົມບູນ","name:en":"Wat Nônsômboun","tradition":"buddhist","country_code":"la"}},{"type":"Feature","geometry":{"type":"Point","coordinates":[105.878451,14.8982462]},"properties":{"name:en":"Vat Thong","tradition":"buddhist","country_code":"la"}},{"type":"Feature","geometry":{"type":"Point","coordinates":[105.8088654,15.123877]},"properties":{"name:en":"Wat Wiad","tradition":"buddhist","country_code":"la"}},{"type":"Feature","geometry":{"type":"Point","coordinates":[102.4649486,18.5613777]},"properties":{"name:en":"Kok Kien Temple","tradition":"buddhist","denomination":"theravada","country_code":"la"}},{"type":"Feature","geometry":{"type":"Point","coordinates":[105.8751685,14.8350231]},"properties":{"name:en":"Wat Muang Kang","tradition":"buddhist","country_code":"la"}},{"type":"Feature","geometry":{"type":"Point","coordinates":[106.0276368,14.7635274]},"properties":{"name":"Buddhas foot","tradition":"buddhist","country_code":"la"}},{"type":"Feature","geometry":{"type":"Point","coordinates":[102.1401053,19.9012451]},"properties":{"name":"ທອງພຸດ","name:en":"Golden Buddha","tradition":"buddhist","country_code":"la"}},{"type":"Feature","geometry":{"type":"Point","coordinates":[102.1419476,19.9026081]},"properties":{"name":"ຖ້ຳ Sak Kalin ວັດ","name:en":"Tham Sak Kalin Temple","tradition":"buddhist","country_code":"la"}},{"type":"Feature","geometry":{"type":"Point","coordinates":[102.1530959,19.8834145]},"properties":{"name:en":"Wat Paphonphao Vacnaram (Vipassana)","tradition":"buddhist","country_code":"la"}},{"type":"Feature","geometry":{"type":"Point","coordinates":[102.3968856,18.4824583]},"properties":{"name":"Wat Danpha","name:en":"Wat Danpha","tradition":"buddhist","country_code":"la"}},{"type":"Feature","geometry":{"type":"Point","coordinates":[102.4259597,18.445411]},"properties":{"name":"Vang Xang","tradition":"buddhist","denomination":"buddhist","addr:city":"Phonghong","country_code":"la"}},{"type":"Feature","geometry":{"type":"Point","coordinates":[104.6601526,18.2310161]},"properties":{"name":"ວັດບ້ານທ່າບັກ","name:en":"Wat Ban Thabak","tradition":"buddhist","addr:housenumber":"8","addr:city":"ຄຳເກີດ","country_code":"la"}},{"type":"Feature","geometry":{"type":"Point","coordinates":[104.1881449,20.2012231]},"properties":{"name":"ວັດອິນແປງ ບ້ານນາຫ້ວຍ","name:en":"Wat Inpèng Ban Nahouai","tradition":"buddhist","country_code":"la"}},{"type":"Feature","geometry":{"type":"Point","coordinates":[105.8627433,15.0220194]},"properties":{"name":"Vat Phou Ngoy","tradition":"buddhist","country_code":"la"}},{"type":"Feature","geometry":{"type":"Point","coordinates":[104.9852335,16.673586]},"properties":{"name":"ວັດໃຫຍ່ ຫຼັກເມືອງ","tradition":"buddhist","country_code":"la"}},{"type":"Feature","geometry":{"type":"Point","coordinates":[102.6741815,17.831376]},"properties":{"name":"ວັດປ່າໂພທອງໜອງຄຳແສນ","name:en":"Wat Pa Po Thong Nong Khamsan","tradition":"buddhist","country_code":"la"}},{"type":"Feature","geometry":{"type":"Point","coordinates":[105.7796749,15.1245305]},"properties":{"name":"Kengkeung Temple","tradition":"buddhist","country_code":"la"}},{"type":"Feature","geometry":{"type":"Point","coordinates":[105.8451414,15.0965924]},"properties":{"name":"Animist-Buddhist Ghost Small House","tradition":"buddhist","country_code":"la"}},{"type":"Feature","geometry":{"type":"Point","coordinates":[105.8434526,15.0867422]},"properties":{"name":"Animist-Buddhist Ghost Small House","tradition":"buddhist","denomination":"animism","country_code":"la"}},{"type":"Feature","geometry":{"type":"Point","coordinates":[105.8428434,15.0865954]},"properties":{"name":"Animist-Buddhist Ghost Small House","tradition":"buddhist","denomination":"animism","country_code":"la"}},{"type":"Feature","geometry":{"type":"Point","coordinates":[105.8110098,15.1140513]},"properties":{"name":"Vat Phone Koung","tradition":"buddhist","country_code":"la"}},{"type":"Feature","geometry":{"type":"Point","coordinates":[105.8123016,15.1276088]},"properties":{"name":"Wat Ban Kè","tradition":"buddhist","country_code":"la"}},{"type":"Feature","geometry":{"type":"Point","coordinates":[105.8169306,15.1134959]},"properties":{"name":"Vat Phonsavanh","tradition":"buddhist","country_code":"la"}},{"type":"Feature","geometry":{"type":"Point","coordinates":[102.620513,17.953803]},"properties":{"name":"ວັດພະໄຊຍເສຕຖາທິຣາຊ","name:en":"Wat Phaxay","tradition":"buddhist","country_code":"la"}},{"type":"Feature","geometry":{"type":"Point","coordinates":[105.8732683,14.870449]},"properties":{"name:en":"Vat Sisumang","tradition":"buddhist","country_code":"la"}},{"type":"Feature","geometry":{"type":"Point","coordinates":[105.6784913,15.2561813]},"properties":{"name":"Vat Tham Phatchao Kok","tradition":"buddhist","country_code":"la"}},{"type":"Feature","geometry":{"type":"Point","coordinates":[105.1615049,16.5349102]},"properties":{"name":"ວັດປ່າພູຄໍ້","name:en":"Phou Kho Forest Temple","tradition":"buddhist","country_code":"la"}},{"type":"Feature","geometry":{"type":"Point","coordinates":[102.2591497,21.1025018]},"properties":{"name":"Wat Bansine Xay","name:en":"Wat Bansine Xay","tradition":"buddhist","country_code":"la"}},{"type":"Feature","geometry":{"type":"Point","coordinates":[102.6454612,18.0209807]},"properties":{"name":"ວັດ","tradition":"buddhist","country_code":"la"}},{"type":"Feature","geometry":{"type":"Point","coordinates":[102.6386917,18.0500697]},"properties":{"name":"ວັດບ້ານໜອງວຽງຄຳ","name:en":"Wat Ban Hongviangkham","tradition":"buddhist","country_code":"la"}},{"type":"Feature","geometry":{"type":"Point","coordinates":[101.8925568,19.5154411]},"properties":{"name":"ວັດບ້ານນາຝາຍ","tradition":"buddhist","country_code":"la"}},{"type":"Feature","geometry":{"type":"Point","coordinates":[105.0449383,17.9903519]},"properties":{"name":"Roadside Buddha - one reclining and four standing","tradition":"buddhist","denomination":"theravada","country_code":"la"}},{"type":"Feature","geometry":{"type":"Point","coordinates":[105.6462754,15.1211672]},"properties":{"name:en":"Wat","tradition":"buddhist","country_code":"la"}},{"type":"Feature","geometry":{"type":"Point","coordinates":[102.6078411,17.986086]},"properties":{"name":"ວັດດົງປາແລບ","name:en":"Dongpalaeb Temple","tradition":"buddhist","country_code":"la"}},{"type":"Feature","geometry":{"type":"Point","coordinates":[102.153079,19.9104197]},"properties":{"name":"Wat Khokphap","tradition":"buddhist","country_code":"la"}},{"type":"Feature","geometry":{"type":"Point","coordinates":[102.1485184,19.9109099]},"properties":{"name":"Wat Nong Sa Keo","tradition":"buddhist","country_code":"la"}},{"type":"Feature","geometry":{"type":"Point","coordinates":[101.7176169,19.248889]},"properties":{"name":"Wat Sibounheuang","name:en":"Sibounheuang Temple","tradition":"buddhist","country_code":"la"}},{"type":"Feature","geometry":{"type":"Point","coordinates":[101.7158354,19.2415873]},"properties":{"name":"Nalao Temple","tradition":"buddhist","country_code":"la"}},{"type":"Feature","geometry":{"type":"Point","coordinates":[101.7040328,19.2511197]},"properties":{"name":"Done Temple","tradition":"buddhist","country_code":"la"}},{"type":"Feature","geometry":{"type":"Point","coordinates":[101.7115511,19.2651013]},"properties":{"name":"Wat Sisawangvong","name:en":"Sisawangvon Temple","tradition":"buddhist","country_code":"la"}},{"type":"Feature","geometry":{"type":"Point","coordinates":[101.7116697,19.2352353]},"properties":{"name":"Wat Natornoy","name:en":"Natornoy Temple","tradition":"buddhist","country_code":"la"}},{"type":"Feature","geometry":{"type":"Point","coordinates":[101.7140115,19.2496632]},"properties":{"name":"Wat Phapoun","name:en":"Phapoun Temple","tradition":"buddhist","country_code":"la"}},{"type":"Feature","geometry":{"type":"Point","coordinates":[101.7092005,19.2482264]},"properties":{"name":"Wat Keng","name:en":"Keng Temple","tradition":"buddhist","country_code":"la"}},{"type":"Feature","geometry":{"type":"Point","coordinates":[105.8320348,15.0778369]},"properties":{"name":"Ban Khone Lay Temple","tradition":"buddhist","country_code":"la"}},{"type":"Feature","geometry":{"type":"Point","coordinates":[106.0274073,14.7634379]},"properties":{"name:en":"A Buddha foot print","tradition":"buddhist","country_code":"la"}},{"type":"Feature","geometry":{"type":"Point","coordinates":[102.5596789,17.9723729]},"properties":{"name":"ວັດ ຍາພະ","tradition":"buddhist","country_code":"la"}},{"type":"Feature","geometry":{"type":"Point","coordinates":[102.4308481,19.0388694]},"properties":{"name":"Thamxang Xalayam Temple","name:en":"Thamxang Xalayam Temple","tradition":"buddhist","country_code":"la"}},{"type":"Feature","geometry":{"type":"Point","coordinates":[102.4407024,18.9201816]},"properties":{"name":"Wat Ketkeo","tradition":"buddhist","country_code":"la"}},{"type":"Feature","geometry":{"type":"Point","coordinates":[102.6100453,17.9760215]},"properties":{"name":"Wat Dong Mieng","tradition":"buddhist","country_code":"la"}},{"type":"Feature","geometry":{"type":"Point","coordinates":[104.7508168,16.5675105]},"properties":{"name":"ວັດສຸນັນທາຣາມ","name:en":"Wat Sounantha","tradition":"buddhist","addr:city":"Savannakhet","addr:postcode":"13000","country_code":"la"}},{"type":"Feature","geometry":{"type":"Point","coordinates":[104.7452981,16.5685349]},"properties":{"name":"ວັດຈອມແກ້ວ","name:en":"Wat Chomkeo","tradition":"buddhist","addr:street":"Kouvolavong Road","addr:city":"Savannakhet","addr:postcode":"13000","country_code":"la"}},{"type":"Feature","geometry":{"type":"Point","coordinates":[106.2059551,15.0764976]},"properties":{"name":"Watpa Kireevongkot","tradition":"buddhist","country_code":"la"}},{"type":"Feature","geometry":{"type":"Point","coordinates":[102.7105134,18.0516936]},"properties":{"name":"Wat Khoknoy","tradition":"buddhist","country_code":"la"}},{"type":"Feature","geometry":{"type":"Point","coordinates":[102.7200603,18.2047602]},"properties":{"name":"Wat Paa Naakham","tradition":"buddhist","country_code":"la"}},{"type":"Feature","geometry":{"type":"Point","coordinates":[102.637974,17.9459762]},"properties":{"name":"ວັດໂພນປ່າເປົ້າ","name:en":"Wat​ Phonpapao","tradition":"buddhist","country_code":"la"}},{"type":"Feature","geometry":{"type":"Point","coordinates":[102.536213,18.0655449]},"properties":{"name":"ສູຂາຣາມ ບ້ານ ດົງຫຼວງ","name:en":"Soukharam Ban Dônglouang","tradition":"buddhist","country_code":"la"}},{"type":"Feature","geometry":{"type":"Point","coordinates":[102.528992,18.0795004]},"properties":{"name":"ສີຮິທັມມາຮາມ ບ້ານ ນາຊາຍທອງ ເໜືອ","name:en":"Sihithammaham Ban Naxaythong Nua","tradition":"buddhist","country_code":"la"}},{"type":"Feature","geometry":{"type":"Point","coordinates":[102.6811133,17.8311677]},"properties":{"name":"Wat Yai Chaleunxai","tradition":"buddhist","country_code":"la"}},{"type":"Feature","geometry":{"type":"Point","coordinates":[102.5931728,17.9988459]},"properties":{"name":"Wat Nong  Ping","tradition":"buddhist","country_code":"la"}},{"type":"Feature","geometry":{"type":"Point","coordinates":[102.6510934,17.8756539]},"properties":{"name":"Wat Salakham","name:en":"Wat Salakham","tradition":"buddhist","country_code":"la"}},{"type":"Feature","geometry":{"type":"Point","coordinates":[106.2268437,15.4663443]},"properties":{"name":"Wat Pa Rim Tang","name:en":"Wat Pa Rim Tang","tradition":"buddhist","country_code":"la"}},{"type":"Feature","geometry":{"type":"Point","coordinates":[102.5562798,17.9722019]},"properties":{"name":"ວັດ ສີບຸນເຮືອງ","tradition":"buddhist","country_code":"la"}},{"type":"Feature","geometry":{"type":"Point","coordinates":[102.6114822,17.9616915]},"properties":{"name":"ຫໍພະແກ້ວ","name:en":"Ho Phra Keo","tradition":"buddhist","country_code":"la"}},{"type":"Feature","geometry":{"type":"Point","coordinates":[102.6063901,17.9632433]},"properties":{"name":"ວັດ ຂຽງຍືນ","name:en":"Wat Xieng Ngeun","tradition":"buddhist","addr:street":"Quai Fa Ngum","country_code":"la"}},{"type":"Feature","geometry":{"type":"Point","coordinates":[102.6029628,17.9641175]},"properties":{"name":"Vat Can","name:en":"Vat Chan","tradition":"buddhist","denomination":"theravada","country_code":"la"}},{"type":"Feature","geometry":{"type":"Point","coordinates":[102.614228,17.957862]},"properties":{"name":"Vat Phīavat","name:en":"Wat Phiavat","tradition":"buddhist","denomination":"theravada","country_code":"la"}},{"type":"Feature","geometry":{"type":"Point","coordinates":[102.6171087,17.957959]},"properties":{"name":"Vat Sīmư̄ang","name:en":"Wat Si Muang","tradition":"buddhist","country_code":"la"}},{"type":"Feature","geometry":{"type":"Point","coordinates":[104.7453454,16.5601028]},"properties":{"name":"ວັດໄຊຍະພູມ","name:en":"Wat Sayaphoum","tradition":"buddhist","addr:street":"Khantabouli Road","addr:city":"Savannakhet","addr:postcode":"13000","country_code":"la"}},{"type":"Feature","geometry":{"type":"Point","coordinates":[102.8161888,18.25805]},"properties":{"name":"ພຣະບາດແອວຂັນ","name:en":"Phrabat Eokhan","tradition":"buddhist","country_code":"la"}},{"type":"Feature","geometry":{"type":"Point","coordinates":[102.6046321,17.9663121]},"properties":{"name":"ວັດ ຫາຍໂສກ (Vat Haysok)","name:en":"Wat Haysok","tradition":"buddhist","addr:street":"ຖະໜົນ ເຊດຖາທິຣາດ","addr:city":"Vientiane","country_code":"la"}},{"type":"Feature","geometry":{"type":"Point","coordinates":[101.984202,20.6867248]},"properties":{"name:en":"Phu That","tradition":"buddhist","country_code":"la"}},{"type":"Feature","geometry":{"type":"Point","coordinates":[102.6038856,17.9655958]},"properties":{"name":"ວັດອົງຕື້","name:en":"Wat Ong Teu","tradition":"buddhist","country_code":"la"}},{"type":"Feature","geometry":{"type":"Point","coordinates":[105.8144592,14.8486618]},"properties":{"name":"ວັດພູ","name:en":"Vat Phou","tradition":"buddhist","country_code":"la"}},{"type":"Feature","geometry":{"type":"Point","coordinates":[104.8512181,16.6088063]},"properties":{"name":"That Ing Hang","tradition":"buddhist","addr:street":"ໂພນສິມ","country_code":"la"}},{"type":"Feature","geometry":{"type":"Point","coordinates":[102.1364298,19.8917417]},"properties":{"name":"Haw Pha Bang","tradition":"buddhist","addr:street":"Sisavangvong Road","country_code":"la"}},{"type":"Feature","geometry":{"type":"Point","coordinates":[102.6311841,17.9033587]},"properties":{"name":"ວັດສົມຫວັງ","name:en":"Somvang Temple","tradition":"buddhist","denomination":"theravada","country_code":"la"}},{"type":"Feature","geometry":{"type":"Point","coordinates":[104.802797,17.3972466]},"properties":{"name":"Wat Nabo","tradition":"buddhist","addr:city":"Thakhek","country_code":"la"}},{"type":"Feature","geometry":{"type":"Point","coordinates":[102.4489386,18.9266593]},"properties":{"name":"ວັດກາງ","name:en":"Kang Temple","tradition":"buddhist","denomination":"theravada","country_code":"la"}},{"type":"Feature","geometry":{"type":"Point","coordinates":[102.6450055,17.8796921]},"properties":{"name":"ວັດບ້ານໜອງແວງ","name:en":"Wat Nongvèng","tradition":"buddhist","country_code":"la"}},{"type":"Feature","geometry":{"type":"Point","coordinates":[106.8331274,14.8076303]},"properties":{"name":"Wat Luang Temple","tradition":"buddhist","country_code":"la"}},{"type":"Feature","geometry":{"type":"Point","coordinates":[102.6365119,17.9759226]},"properties":{"name":"Wat That Luang Tai","tradition":"buddhist","country_code":"la"}},{"type":"Feature","geometry":{"type":"Point","coordinates":[105.9172961,14.8103104]},"properties":{"name":"Um Tomo","tradition":"buddhist","country_code":"la"}},{"type":"Feature","geometry":{"type":"Point","coordinates":[105.1771621,16.3787218]},"properties":{"name":"ວັດປ່າ","tradition":"buddhist","country_code":"la"}},{"type":"Feature","geometry":{"type":"Point","coordinates":[105.1825012,16.3762749]},"properties":{"name":"ວັດບ້ານ","tradition":"buddhist","country_code":"la"}},{"type":"Feature","geometry":{"type":"Point","coordinates":[102.1249168,19.8828454]},"properties":{"name":"ວັດພຼະບາທໃຕ້","name:en":"Wat Chua Phat Tich","tradition":"buddhist","country_code":"la"}},{"type":"Feature","geometry":{"type":"Point","coordinates":[102.1431503,19.8974719]},"properties":{"name":"ວັດຊຽງທອງ","name:en":"Wat Xieng Thong","tradition":"buddhist","addr:street":"Souvanhnakhamphong Road","addr:city":"Luang Prabang","addr:postcode":"06000","country_code":"la"}},{"type":"Feature","geometry":{"type":"Point","coordinates":[104.7711501,16.5461014]},"properties":{"name":"Phonsay Temple","tradition":"buddhist","addr:street":"Phonsay 1 Road","addr:city":"Savannakhet","addr:postcode":"13000","country_code":"la"}},{"type":"Feature","geometry":{"type":"Point","coordinates":[102.6429979,17.8321313]},"properties":{"name:en":"Wat Sibounheuang","tradition":"buddhist","country_code":"la"}},{"type":"Feature","geometry":{"type":"Point","coordinates":[102.757181,17.9003208]},"properties":{"name":"ວັດໂພສວາງຖີນຕ້າງ","name:en":"Wat Phôsoang Thintang","tradition":"buddhist","country_code":"la"}},{"type":"Feature","geometry":{"type":"Point","coordinates":[102.6231183,17.911741]},"properties":{"name":"Wat Chomphet","tradition":"buddhist","country_code":"la"}},{"type":"Feature","geometry":{"type":"Point","coordinates":[102.5930472,17.9679835]},"properties":{"name":"ວັດຫົວເມືອງ","tradition":"buddhist","country_code":"la"}},{"type":"Feature","geometry":{"type":"Point","coordinates":[102.6051578,17.965304]},"properties":{"name":"ວັດ ມີໄຊ","name:en":"Mixay Temple","tradition":"buddhist","country_code":"la"}},{"type":"Feature","geometry":{"type":"Point","coordinates":[102.6030863,17.9641429]},"properties":{"name":"Vat Can","name:en":"Vat Chan","tradition":"buddhist","denomination":"theravada","country_code":"la"}},{"type":"Feature","geometry":{"type":"Point","coordinates":[102.1400504,19.8951839]},"properties":{"name":"Wat Sikhounmuag","tradition":"buddhist","country_code":"la"}},{"type":"Feature","geometry":{"type":"Point","coordinates":[102.1350014,19.8905654]},"properties":{"name":"ວັດໃໝ່ ສຸວັນນະພູມາຣາມ","name:en":"Wat Mai Suwannaphumaham","tradition":"buddhist","country_code":"la"}},{"type":"Feature","geometry":{"type":"Point","coordinates":[102.1296416,19.8829339]},"properties":{"name:en":"Wat That Luang","tradition":"buddhist","country_code":"la"}},{"type":"Feature","geometry":{"type":"Point","coordinates":[102.1382737,19.8869895]},"properties":{"name":"Wat Wisunalat","name:en":"Wat Visoun","tradition":"buddhist","country_code":"la"}},{"type":"Feature","geometry":{"type":"Point","coordinates":[102.1381858,19.8874186]},"properties":{"name":"Wat Aram","tradition":"buddhist","country_code":"la"}},{"type":"Feature","geometry":{"type":"Point","coordinates":[102.1372591,19.8933306]},"properties":{"name":"ວັດຊຽງມ່ວນ ວຊິຣມັງຄລາຣາມ","name:en":"Wat Xieng Muan","tradition":"buddhist","country_code":"la"}},{"type":"Feature","geometry":{"type":"Point","coordinates":[102.1329001,19.8904]},"properties":{"name":"Wat Phonxay Sanasongkham","name:en":"Wat Phonxay Sanasongkham","tradition":"buddhist","country_code":"la"}},{"type":"Feature","geometry":{"type":"Point","coordinates":[102.1370672,19.8902122]},"properties":{"name":"That Chomsi","tradition":"buddhist","country_code":"la"}},{"type":"Feature","geometry":{"type":"Point","coordinates":[102.1416111,19.895508]},"properties":{"name":"Wat Sensoukharam","name:en":"Wat Senesoukharam","tradition":"buddhist","country_code":"la"}},{"type":"Feature","geometry":{"type":"Point","coordinates":[102.1421213,19.8957986]},"properties":{"name":"ວັດສົບສິກຂາຣາມ","name:en":"Wat Sop Sickharam","tradition":"buddhist","country_code":"la"}},{"type":"Feature","geometry":{"type":"Point","coordinates":[102.1437255,19.8963646]},"properties":{"name":"ວັດສຸວັນນະຄີຣີ","name:en":"Wat Souvannakhiri","tradition":"buddhist","country_code":"la"}},{"type":"Feature","geometry":{"type":"Point","coordinates":[102.1409707,19.8915237]},"properties":{"name":"ວັດພັນຫຼວງ ຣາຊສຸດາຣາມ","name:en":"Wat Phan Luang Ratsoudaram","tradition":"buddhist","country_code":"la"}},{"type":"Feature","geometry":{"type":"Point","coordinates":[102.1390962,19.8926299]},"properties":{"name":"Wat Siphoutthabat Thippharam","name:en":"Wat Siphoutthabat Thippharam","tradition":"buddhist","country_code":"la"}},{"type":"Feature","geometry":{"type":"Point","coordinates":[105.9290654,13.9669422]},"properties":{"name":"Wat Khone Nua","tradition":"buddhist","country_code":"la"}},{"type":"Feature","geometry":{"type":"Point","coordinates":[105.9011875,14.8637632]},"properties":{"name":"Wat Pha","tradition":"buddhist","country_code":"la"}},{"type":"Feature","geometry":{"type":"Point","coordinates":[105.8526097,14.2552087]},"properties":{"name":"ວັດໃໝ່ໂພທິ","name:en":"Wat Mai Poti","tradition":"buddhist","country_code":"la"}},{"type":"Feature","geometry":{"type":"Point","coordinates":[103.3701203,19.3280619]},"properties":{"name":"ວັດ ເພຍວັດ","name:en":"Vat Phiavat","tradition":"buddhist","denomination":"theravada","country_code":"la"}},{"type":"Feature","geometry":{"type":"Point","coordinates":[105.9191253,13.9605917]},"properties":{"name":"Wat Khon Ta","tradition":"buddhist","country_code":"la"}},{"type":"Feature","geometry":{"type":"Point","coordinates":[102.1327016,19.887629]},"properties":{"name":"Wat Ho Siang Voravihane","tradition":"buddhist","country_code":"la"}},{"type":"Feature","geometry":{"type":"Point","coordinates":[102.1323502,19.8873497]},"properties":{"name":"Wat Mahathat","tradition":"buddhist","country_code":"la"}},{"type":"Feature","geometry":{"type":"Point","coordinates":[102.9021693,18.0653451]},"properties":{"name":"ວັດ ໂພນແພງໄຊຍະຮາມ","tradition":"buddhist","country_code":"la"}},{"type":"Feature","geometry":{"type":"Point","coordinates":[102.6026009,17.9663755]},"properties":{"name":"ວັດ ອິນແປງ","name:en":"Inpeng Temple","tradition":"buddhist","country_code":"la"}},{"type":"Feature","geometry":{"type":"Point","coordinates":[104.7659256,16.5164894]},"properties":{"name":"Donxeng Temple","tradition":"buddhist","addr:street":"Sonexay Road","addr:city":"Savannakhet","addr:postcode":"13000","country_code":"la"}},{"type":"Feature","geometry":{"type":"Point","coordinates":[102.141188,19.8855079]},"properties":{"name":"Wat Vatmounena Somphouaram","name:en":"Wat Vatmounena Somphouaram","tradition":"buddhist","country_code":"la"}},{"type":"Feature","geometry":{"type":"Point","coordinates":[102.6572601,17.9914157]},"properties":{"name":"ວັດປ່າພູກຳພ້າ ວົງໄຊຍະຣາມ","name:en":"Wat Paphoukampha Vôngxaignaram","tradition":"buddhist","country_code":"la"}},{"type":"Feature","geometry":{"type":"Point","coordinates":[102.6178429,17.968226]},"properties":{"name":"ວັດ ພະທາດພູຊວງເທບນິມິດ","name:en":"That Phoun Temple","tradition":"buddhist","denomination":"theravada","country_code":"la"}},{"type":"Feature","geometry":{"type":"Point","coordinates":[102.7401018,17.891302]},"properties":{"name":"ວັດ ຊົມພູວະນາຣາມ ບ. ປາຫວ້າ","name:en":"Wat Xômphouvanaram Ban Pava","tradition":"buddhist","country_code":"la"}},{"type":"Feature","geometry":{"type":"Point","coordinates":[102.6569394,18.0446595]},"properties":{"name":"ວັດປ່າສັນຕິສຸຂ ບ້ານດອນໜູນ","name:en":"Wat Pasantisouk Ban Donnoun","tradition":"buddhist","country_code":"la"}},{"type":"Feature","geometry":{"type":"Point","coordinates":[105.8330476,15.092518]},"properties":{"name":"Ban Bangyor Nonsavang Temple","tradition":"buddhist","country_code":"la"}},{"type":"Feature","geometry":{"type":"Point","coordinates":[102.6864126,18.0099449]},"properties":{"name":"ວັດໂພໄຊຍະຮານ. ບ. ໂຊກນ້ອຍ","name:en":"Wat Phôxaignahan Ban Xôk Noy","tradition":"buddhist","country_code":"la"}},{"type":"Feature","geometry":{"type":"Point","coordinates":[105.83199,15.0779119]},"properties":{"name":"Ban Khrone Lay Temple","tradition":"buddhist","country_code":"la"}},{"type":"Feature","geometry":{"type":"Point","coordinates":[102.6236224,17.9553621]},"properties":{"name":"Wat Sala Daeng","tradition":"buddhist","country_code":"la"}},{"type":"Feature","geometry":{"type":"Point","coordinates":[101.4020484,21.0099661]},"properties":{"name":"ວັດສາມະຄີໄຊ","name:en":"Wat Samakeexay","tradition":"buddhist","country_code":"la"}},{"type":"Feature","geometry":{"type":"Point","coordinates":[102.1429121,19.8962777]},"properties":{"name":"Wat Sibounheuang","tradition":"buddhist","country_code":"la"}},{"type":"Feature","geometry":{"type":"Point","coordinates":[102.1426481,19.8961134]},"properties":{"name":"Wat Sirimoungkhoun Sayaram","name:en":"Wat Sirimoungkhoun Sayaram","tradition":"buddhist","country_code":"la"}},{"type":"Feature","geometry":{"type":"Point","coordinates":[102.7755197,18.0546168]},"properties":{"name":"ວັດ ບ້ານໄຜ່ລ້ອມ","name:en":"Wat Ban Phailom","tradition":"buddhist","country_code":"la"}},{"type":"Feature","geometry":{"type":"Point","coordinates":[102.133021,19.8825133]},"properties":{"name":"Wat Manorom","tradition":"buddhist","country_code":"la"}},{"type":"Feature","geometry":{"type":"Point","coordinates":[102.6214854,17.9497375]},"properties":{"name":"Bounkhamyong Temple","tradition":"buddhist","denomination":"theravada","country_code":"la"}},{"type":"Feature","geometry":{"type":"Point","coordinates":[101.1729998,21.1451049]},"properties":{"name":"Xieng Tung Stupa","tradition":"buddhist","country_code":"la"}},{"type":"Feature","geometry":{"type":"Point","coordinates":[102.6632467,17.8226886]},"properties":{"name":"ວັດ ນາກຫໍພ້າ ບຸນຕານຸສອນ","name:en":"Watnakhopha Bountanouson","tradition":"buddhist","country_code":"la"}},{"type":"Feature","geometry":{"type":"Point","coordinates":[102.6247939,17.9845499]},"properties":{"name":"ວັດຫ້ອງໄກ່ແກ້ວ","name:en":"Wat hongkaikeo","tradition":"buddhist","addr:street":"Sibounheuang Road","country_code":"la"}},{"type":"Feature","geometry":{"type":"Point","coordinates":[102.4701213,18.249283]},"properties":{"name":"ວັດສີວີໄລ","name:en":"Wat Sivilai","tradition":"buddhist","country_code":"la"}},{"type":"Feature","geometry":{"type":"Point","coordinates":[102.4979035,18.199345]},"properties":{"name":"ວັດ ສະວາງເຊີຍະລາມໂພນຄຳ","name:en":"Wat Savang Xeugnalam Phônkham","tradition":"buddhist","country_code":"la"}},{"type":"Feature","geometry":{"type":"Point","coordinates":[102.5007514,18.2147604]},"properties":{"name":"ວັດ ອຳພາວັນ ສຸຂຍະຣາມ","name:en":"Wat Amphavan Sukhiaram","tradition":"buddhist","country_code":"la"}},{"type":"Feature","geometry":{"type":"Point","coordinates":[102.13301,19.898088]},"properties":{"name":"Wat Xieng Mene Sai Ya Set Tha Ram","tradition":"buddhist","country_code":"la"}},{"type":"Feature","geometry":{"type":"Point","coordinates":[102.137861,19.9006203]},"properties":{"name":"ວັດຈອມເພັດ","name:en":"Wat Chom Phet","tradition":"buddhist","country_code":"la"}},{"type":"Feature","geometry":{"type":"Point","coordinates":[102.662097,17.9801808]},"properties":{"name":"Vat Xokkham","tradition":"buddhist","country_code":"la"}},{"type":"Feature","geometry":{"type":"Point","coordinates":[106.0547946,16.5691863]},"properties":{"name:en":"Wat Noon Yang","tradition":"buddhist","country_code":"la"}},{"type":"Feature","geometry":{"type":"Point","coordinates":[102.6357318,17.9683552]},"properties":{"name":"Vat Sisangvone","tradition":"buddhist","country_code":"la"}},{"type":"Feature","geometry":{"type":"Point","coordinates":[105.8328817,15.0922827]},"properties":{"name":"ວັດ ບັງເຢາະ","name:en":"Bangyo Nonsavang Temple","tradition":"buddhist","country_code":"la"}},{"type":"Feature","geometry":{"type":"Point","coordinates":[102.6422739,18.0534817]},"properties":{"name":"Wat Nongviengkham","tradition":"buddhist","country_code":"la"}},{"type":"Feature","geometry":{"type":"Point","coordinates":[102.4309519,17.9869334]},"properties":{"name":"ວັດ ຖຳພະ ວະນະຣາມ","name:en":"Wat Thampha Vanaram","tradition":"buddhist","country_code":"la"}},{"type":"Feature","geometry":{"type":"Point","coordinates":[102.6450515,17.8359555]},"properties":{"name":"ວັດ ຈຽມປາງ ໂຊຍະຮາມ","name:en":"Wat Chiampang Xôgnaham","tradition":"buddhist","country_code":"la"}},{"type":"Feature","geometry":{"type":"Point","coordinates":[102.9416793,18.0476821]},"properties":{"name":"ວັດສີບຸນເຮືອງໄຊຍາຣາມ ບ້ານນາຊາ","name:en":"Wat Sibounhuang Xaignaram Ban Naxa","tradition":"buddhist","country_code":"la"}},{"type":"Feature","geometry":{"type":"Point","coordinates":[102.8291305,18.1324687]},"properties":{"name":"ວັດໂຊກໄຊ ໄຊຍະເມດຕາບ້ານປ່າໄລ່","name:en":"Wat Xôkxai Xaignamétta Ban Palai","tradition":"buddhist","country_code":"la"}},{"type":"Feature","geometry":{"type":"Point","coordinates":[106.4260603,15.7172382]},"properties":{"name":"ວັດກາງ","name:en":"Wat Kang","tradition":"buddhist","country_code":"la"}},{"type":"Feature","geometry":{"type":"Point","coordinates":[102.7333555,18.3168775]},"properties":{"name":"ວັດ ພູເຂົາຄວາຍ","name:en":"Wat Phou Khao Khouay","tradition":"buddhist","country_code":"la"}},{"type":"Feature","geometry":{"type":"Point","coordinates":[102.7681464,18.1710653]},"properties":{"name":"ວັດທ່າດິນແດງເໜືອ","tradition":"buddhist","country_code":"la"}},{"type":"Feature","geometry":{"type":"Point","coordinates":[102.2631455,18.1605719]},"properties":{"name":"Ban Nahoy Temple","tradition":"buddhist","country_code":"la"}},{"type":"Feature","geometry":{"type":"Point","coordinates":[102.7182575,17.8865815]},"properties":{"name":"Wat Dongphosy","name:en":"Wat Dongphosy","tradition":"buddhist","country_code":"la"}},{"type":"Feature","geometry":{"type":"Point","coordinates":[102.6169707,17.9172934]},"properties":{"name":"Haysok Temple","tradition":"buddhist","denomination":"theravada","country_code":"la"}},{"type":"Feature","geometry":{"type":"Point","coordinates":[102.6111503,17.9659387]},"properties":{"name":"Thāt Dam","name:en":"Black Stūpa","tradition":"buddhist","denomination":"theravada","addr:city":"Canthabūlī","country_code":"la"}},{"type":"Feature","geometry":{"type":"Point","coordinates":[105.7835663,15.1220007]},"properties":{"name":"ວັດ ຄັນເກີງ","name:en":"Khangkeung Temple","tradition":"buddhist","country_code":"la"}},{"type":"Feature","geometry":{"type":"Point","coordinates":[105.0282198,16.3674362]},"properties":{"name":"ວັດພຣະທາດໂຜ່ນ","name:en":"That Phone","tradition":"buddhist","country_code":"la"}},{"type":"Feature","geometry":{"type":"Point","coordinates":[102.6173816,17.9076185]},"properties":{"name":"ວັດປາກຫວັຍ ສາມັຄຄີທັມ ໄຊສະຖານ","name:en":"Wat Pakhouei Samakheetam Xaysathane","tradition":"buddhist","denomination":"theravada","country_code":"la"}},{"type":"Feature","geometry":{"type":"Point","coordinates":[102.6171694,17.9260399]},"properties":{"name":"ວັດພັນຫມັ້ນ","name:en":"Phanmanh Temple","tradition":"buddhist","addr:street":"ທະຫນົນທ່າເດື່ອ","country_code":"la"}},{"type":"Feature","geometry":{"type":"Point","coordinates":[102.5863704,17.9896522]},"properties":{"name":"ວັດຈອມໄຕຣ","name:en":"Wat Chormtay","tradition":"buddhist","country_code":"la"}},{"type":"Feature","geometry":{"type":"Point","coordinates":[102.4088103,18.7697539]},"properties":{"name":"ວັດພຸດທະສະມັງຄະລາຣາມ","name:en":"Mangalaram Buddha Temple","tradition":"buddhist","country_code":"la"}},{"type":"Feature","geometry":{"type":"Point","coordinates":[102.6745744,20.7118088]},"properties":{"name":"Wat Okad Sayaram","name:en":"Wat Okad Sayaram","tradition":"buddhist","country_code":"la"}},{"type":"Feature","geometry":{"type":"Point","coordinates":[102.6364918,18.0188051]},"properties":{"name":"ວັດໄຊຍະມຸງຄຸນ","name:en":"Wat Ban Khamhoung","tradition":"buddhist","country_code":"la"}},{"type":"Feature","geometry":{"type":"Point","coordinates":[102.6332166,18.0105128]},"properties":{"name":"ວັດບ້ານສີວິໄລ","name:en":"Wat Ban Sivilay","tradition":"buddhist","country_code":"la"}},{"type":"Feature","geometry":{"type":"Point","coordinates":[102.6281515,18.031749]},"properties":{"name":"ວັດບ້ານຕານມີໄຊ","name:en":"Wat Ban Tanmixay","tradition":"buddhist","country_code":"la"}},{"type":"Feature","geometry":{"type":"Point","coordinates":[101.8925099,19.5154878]},"properties":{"name":"ວັນບ້ານນາຝາຍ","tradition":"buddhist","country_code":"la"}},{"type":"Feature","geometry":{"type":"Point","coordinates":[102.5809247,17.9689053]},"properties":{"name":"ວັດໄຕນ້ອຍ","tradition":"buddhist","country_code":"la"}},{"type":"Feature","geometry":{"type":"Point","coordinates":[102.5732613,17.9693607]},"properties":{"name":"Wat Tai Yai","tradition":"buddhist","country_code":"la"}},{"type":"Feature","geometry":{"type":"Point","coordinates":[102.5571968,17.9981917]},"properties":{"name":"ວັດ ວຽງທອງ","tradition":"buddhist","country_code":"la"}},{"type":"Feature","geometry":{"type":"Point","coordinates":[102.5875958,17.9685368]},"properties":{"name":"ວັດອຸບມຸງ","tradition":"buddhist","country_code":"la"}},{"type":"Feature","geometry":{"type":"Point","coordinates":[102.5916453,17.9681236]},"properties":{"name":"ວັດຂູນຕາ","tradition":"buddhist","country_code":"la"}},{"type":"Feature","geometry":{"type":"Point","coordinates":[102.1385308,19.8923571]},"properties":{"name":"Wat Pha Khe","tradition":"buddhist","country_code":"la"}},{"type":"Feature","geometry":{"type":"Point","coordinates":[104.7565695,16.5472003]},"properties":{"name":"ວັດບຸບຜາຣາມ","name:en":"Wat Bouppharam","tradition":"buddhist","country_code":"la"}},{"type":"Feature","geometry":{"type":"Point","coordinates":[102.6110227,17.9631298]},"properties":{"name":"ຫໍພະໄທພິໂດກ ວັດ ສີສະເກດ","tradition":"buddhist","country_code":"la"}},{"type":"Feature","geometry":{"type":"Point","coordinates":[102.6037069,17.9686235]},"properties":{"name":"ວັດ ເຈີ່ນຮຶງດ໋າວ","tradition":"buddhist","country_code":"la"}},{"type":"Feature","geometry":{"type":"Point","coordinates":[105.790656,14.1576406]},"properties":{"name:en":"Wat PhouKhaoKae","tradition":"buddhist","country_code":"la"}},{"type":"Feature","geometry":{"type":"Point","coordinates":[102.1444291,19.8934874]},"properties":{"name":"ວັດປ່າຄາ ໄຊຍາຣາມ","name:en":"Wat Pakha Xaingaram","tradition":"buddhist","country_code":"la"}},{"type":"Feature","geometry":{"type":"Point","coordinates":[102.1463979,19.8960023]},"properties":{"name":"ວັດໂພນສະອາດ ພັດທິຍະມຸງຄຸນ","name:en":"Wat Phon Sa-At Phattiyamongkhoun","tradition":"buddhist","country_code":"la"}},{"type":"Feature","geometry":{"type":"Point","coordinates":[102.4107116,18.4839433]},"properties":{"name":"ວັດບ້ານໂພນສີໃຕ້","name:en":"Phonsitai Temple","tradition":"buddhist","country_code":"la"}},{"type":"Feature","geometry":{"type":"Point","coordinates":[100.4130167,20.2769293]},"properties":{"name":"Wat Chom Khao Manilath","tradition":"buddhist","country_code":"la"}},{"type":"Feature","geometry":{"type":"Point","coordinates":[102.1243578,18.688073]},"properties":{"name":"Wat Patornorkham","name:en":"Patornorkham Temple","tradition":"buddhist","denomination":"theravada","country_code":"la"}},{"type":"Feature","geometry":{"type":"Point","coordinates":[101.9757308,18.5474656]},"properties":{"name":"ວັດ ໂພນຫີນແຮ່","name:en":"Phonhinhe Temple","tradition":"buddhist","denomination":"theravada","country_code":"la"}},{"type":"Feature","geometry":{"type":"Point","coordinates":[102.4106766,18.4918464]},"properties":{"name":"Wat Namlin","name:en":"Namlin Temple","tradition":"buddhist","denomination":"theravada","country_code":"la"}},{"type":"Feature","geometry":{"type":"Point","coordinates":[102.4115338,18.4691017]},"properties":{"name":"Wat Nam Cheng","name:en":"Nam Cheng Temple","tradition":"buddhist","denomination":"theravada","country_code":"la"}},{"type":"Feature","geometry":{"type":"Point","coordinates":[102.1367778,19.8931894]},"properties":{"name":"Wat Choum Khong","tradition":"buddhist","country_code":"la"}},{"type":"Feature","geometry":{"type":"Point","coordinates":[102.5323941,18.8547521]},"properties":{"name":"ວັດໄຊຍະມຸງຄຸນນະຣານ","name:en":"Wat Chaiyamong Kunnaran","tradition":"buddhist","country_code":"la"}},{"type":"Feature","geometry":{"type":"Point","coordinates":[102.3247627,18.6354537]},"properties":{"name":"ວັດ ອນທາໃຊຍະຣາຣາມບານຫີນເຫີບໃຕ້,ບ ພສ.2559.","name:en":"Wat Ontha Chaya Raram Ban Hin Hep South, P.S. 2559.","tradition":"buddhist","country_code":"la"}},{"type":"Feature","geometry":{"type":"Point","coordinates":[102.6339703,17.984145]},"properties":{"name":"Pha that luanh","tradition":"buddhist","country_code":"la"}},{"type":"Feature","geometry":{"type":"Point","coordinates":[102.7324255,18.1236925]},"properties":{"name":"ວັດບ້ານນາສາລາ","name:en":"Nasala Temple","tradition":"buddhist","country_code":"la"}},{"type":"Feature","geometry":{"type":"Point","coordinates":[105.7931744,15.1242347]},"properties":{"name:en":"Temple","tradition":"buddhist","country_code":"la"}},{"type":"Feature","geometry":{"type":"Point","coordinates":[102.4491351,18.9200183]},"properties":{"name":"Wat Si Suman","name:en":"Wat Si Suman","tradition":"buddhist","country_code":"la"}},{"type":"Feature","geometry":{"type":"Point","coordinates":[102.7550557,18.0213205]},"properties":{"name":"ວັດປ່າເວລຸວັນ","name:en":"Veruwan Forest Temple","tradition":"buddhist","country_code":"la"}},{"type":"Feature","geometry":{"type":"Point","coordinates":[102.622049,17.9350453]},"properties":{"name":"Vat Nak Noy","name:en":"Vat Nak Noy","tradition":"buddhist","addr:street":"Watnak Nyai Road","country_code":"la"}},{"type":"Feature","geometry":{"type":"Point","coordinates":[102.1446978,19.897152]},"properties":{"name":"Wat Pak Khan Khammungkhun","name:en":"Wat Pak Khan Khammungkhun","tradition":"buddhist","country_code":"la"}},{"type":"Feature","geometry":{"type":"Point","coordinates":[102.4611468,18.3668945]},"properties":{"name":"ວັດໂພນທັນ","name:en":"Wat Phonethanh","tradition":"buddhist","denomination":"theravada","country_code":"la"}},{"type":"Feature","geometry":{"type":"Point","coordinates":[102.2136796,19.8339648]},"properties":{"name:en":"Wat Ansavanaram","tradition":"buddhist","country_code":"la"}},{"type":"Feature","geometry":{"type":"Point","coordinates":[102.5535448,17.979618]},"properties":{"name":"ວັດ ແກ້ວປ່າ","tradition":"buddhist","country_code":"la"}},{"type":"Feature","geometry":{"type":"Point","coordinates":[102.5452308,18.0028074]},"properties":{"name":"ວັດ ໜອງໜ້ຽວ","tradition":"buddhist","country_code":"la"}},{"type":"Feature","geometry":{"type":"Point","coordinates":[102.5584881,17.9981641]},"properties":{"name":"ວັດ ວຽງທອງ","tradition":"buddhist","country_code":"la"}},{"type":"Feature","geometry":{"type":"Point","coordinates":[102.6102525,17.9729926]},"properties":{"name":"ວັດ  ທົ່ງຂັນຄຳ","tradition":"buddhist","country_code":"la"}},{"type":"Feature","geometry":{"type":"Point","coordinates":[102.5777355,17.9869095]},"properties":{"name":"ວັດ ປາກທ້າງ","tradition":"buddhist","country_code":"la"}},{"type":"Feature","geometry":{"type":"Point","coordinates":[102.5748693,17.9879787]},"properties":{"name":"ວັດ ປາກທ້າງເຫນືອ","tradition":"buddhist","country_code":"la"}},{"type":"Feature","geometry":{"type":"Point","coordinates":[102.5632939,17.9705082]},"properties":{"name":"ວັດ ເມືອງວາ","tradition":"buddhist","country_code":"la"}},{"type":"Feature","geometry":{"type":"Point","coordinates":[102.7424483,18.1228812]},"properties":{"name":"ວັດບ້ານດົງບັງ","name:en":"Dôngbang Temple","tradition":"buddhist","country_code":"la"}},{"type":"Feature","geometry":{"type":"Point","coordinates":[102.751118,18.1068383]},"properties":{"name":"ວັດບ້ານນາມົນ","tradition":"buddhist","country_code":"la"}},{"type":"Feature","geometry":{"type":"Point","coordinates":[102.7330818,18.1560083]},"properties":{"name":"ວັດບ້ານໂພນຕ້ອງ","tradition":"buddhist","country_code":"la"}},{"type":"Feature","geometry":{"type":"Point","coordinates":[102.7331146,18.1601113]},"properties":{"name":"ວັດບ້ານທ່າດອກຄຳ","tradition":"buddhist","country_code":"la"}},{"type":"Feature","geometry":{"type":"Point","coordinates":[102.7322406,18.1372953]},"properties":{"name":"ວັດໂນນແຍງ (ບ້ານນາສາລາ)","tradition":"buddhist","country_code":"la"}},{"type":"Feature","geometry":{"type":"Point","coordinates":[102.7545842,18.1679696]},"properties":{"name":"ວັດບ້ານໂພນງາມ 1","tradition":"buddhist","country_code":"la"}},{"type":"Feature","geometry":{"type":"Point","coordinates":[102.728088,18.0929996]},"properties":{"name":"ວັດບ້ານໜອງບົວ","tradition":"buddhist","country_code":"la"}},{"type":"Feature","geometry":{"type":"Point","coordinates":[102.7359674,18.0878146]},"properties":{"name":"ວັດບ້ານນາລ້ອມ","tradition":"buddhist","country_code":"la"}},{"type":"Feature","geometry":{"type":"Point","coordinates":[102.6364964,17.9766611]},"properties":{"name":"ທາດຫຼວງ","name:en":"That Luang","tradition":"buddhist","country_code":"la"}},{"type":"Feature","geometry":{"type":"Point","coordinates":[102.6113989,17.9631026]},"properties":{"name":"ວັດສີສະເກດ","name:en":"Vat Sisaket","tradition":"buddhist","country_code":"la"}},{"type":"Feature","geometry":{"type":"Point","coordinates":[104.751042,16.5592214]},"properties":{"name":"ວັດລັດຕະນະລັງສີ","name:en":"Wat Rattanalangsi","tradition":"buddhist","country_code":"la"}},{"type":"Feature","geometry":{"type":"Point","coordinates":[104.7485696,16.555496]},"properties":{"name":"ວັດໄຊຍະມຸງຄຸນ","name:en":"Wat Sayamungkhun","tradition":"buddhist","addr:street":"Phetsalat Road","addr:city":"Savannakhet","addr:postcode":"13000","country_code":"la"}},{"type":"Feature","geometry":{"type":"Point","coordinates":[104.7528394,16.5403654]},"properties":{"name":"Phonsavanh Temple","tradition":"buddhist","addr:city":"Savannakhet","addr:postcode":"13000","country_code":"la"}},{"type":"Feature","geometry":{"type":"Point","coordinates":[102.4494021,18.9293908]},"properties":{"name":"Wat That","name:en":"That Temple","tradition":"buddhist","denomination":"theravada","country_code":"la"}}]}