{"type":"FeatureCollection","features":[{"type":"Feature","geometry":{"type":"Point","coordinates":[113.540117,22.207303]},"properties":{"name":"筷子基坊眾永和堂花炮會海口土地公","tradition":"buddhist","country_code":"mo"}},{"type":"Feature","geometry":{"type":"Point","coordinates":[113.5476451,22.2061034]},"properties":{"name":"城隍廟 Templo do Chan Vong","tradition":"buddhist","country_code":"mo"}},{"type":"Feature","geometry":{"type":"Point","coordinates":[113.5312692,22.1860684]},"properties":{"name":"媽閣廟 Templo de A-Ma","name:en":"A-Ma Temple","tradition":"buddhist","country_code":"mo"}},{"type":"Feature","geometry":{"type":"Point","coordinates":[113.5594344,22.1555367]},"properties":{"name":"三婆廟 Templo de Sam Po","name:en":"Sam Po Temple","tradition":"buddhist","country_code":"mo"}},{"type":"Feature","geometry":{"type":"Point","coordinates":[113.5577792,22.1532825]},"properties":{"name":"觀音堂","tradition":"buddhist","country_code":"mo"}},{"type":"Feature","geometry":{"type":"Point","coordinates":[113.5585965,22.1538978]},"properties":{"name":"醫靈廟 Templo de I Leng","tradition":"buddhist","country_code":"mo"}},{"type":"Feature","geometry":{"type":"Point","coordinates":[113.5585207,22.1620105]},"properties":{"name":"關帝廟 Templo de Kuan Tai","tradition":"buddhist","country_code":"mo"}},{"type":"Feature","geometry":{"type":"Point","coordinates":[113.5477345,22.2061334]},"properties":{"name":"觀音古廟","tradition":"buddhist","country_code":"mo"}},{"type":"Feature","geometry":{"type":"Point","coordinates":[113.5429547,22.2113491]},"properties":{"name":"福德祠","tradition":"buddhist","country_code":"mo"}},{"type":"Feature","geometry":{"type":"Point","coordinates":[113.5506012,22.2019563]},"properties":{"name":"菩提堂","tradition":"buddhist","addr:street":"雅廉訪大馬路 Avenida do Ouvidor Arriaga","addr:housenumber":"4","country_code":"mo"}},{"type":"Feature","geometry":{"type":"Point","coordinates":[113.5818946,22.1310934]},"properties":{"name":"觀音廟（九澳）Templo de Kun Iam (Ká-Hó)","tradition":"buddhist","country_code":"mo"}},{"type":"Feature","geometry":{"type":"Point","coordinates":[113.5406675,22.1977098]},"properties":{"name":"大三巴哪吒廟 Templo de Na Tcha, junto às Ruínas de S. Paulo","name:en":"Na Tcha Temple","tradition":"buddhist","country_code":"mo"}},{"type":"Feature","geometry":{"type":"Point","coordinates":[113.5512959,22.1161658]},"properties":{"name":"觀音古廟 Templo Kun lam","name:en":"Kun lam Temple","tradition":"buddhist","addr:street":"計單奴巷 Travessa do Caetano","country_code":"mo"}},{"type":"Feature","geometry":{"type":"Point","coordinates":[113.5517282,22.1611374]},"properties":{"name":"菩提園 Templo de Pou Tai Un","tradition":"buddhist","country_code":"mo"}},{"type":"Feature","geometry":{"type":"Point","coordinates":[113.5559985,22.1643411]},"properties":{"name":"觀音岩 Pequeno Templo de Kun Iam","name:en":"Kun Iam Small Temple","tradition":"buddhist","country_code":"mo"}},{"type":"Feature","geometry":{"type":"Point","coordinates":[113.5397893,22.2018978]},"properties":{"name":"沙梨頭土地廟 Templo de Tou Tei","name:en":"Tou Tei Temple","tradition":"buddhist","country_code":"mo"}}]}