{"type":"FeatureCollection","features":[{"type":"Feature","geometry":{"type":"Point","coordinates":[102.7722798,2.1519064]},"properties":{"name":"Buddhist Temple","tradition":"buddhist","country_code":"my"}},{"type":"Feature","geometry":{"type":"Point","coordinates":[115.2545181,5.2779241]},"properties":{"name":"Labuan Buddist Association","tradition":"buddhist","country_code":"my"}},{"type":"Feature","geometry":{"type":"Point","coordinates":[102.7135029,2.1718768]},"properties":{"name":"Kuil Buddha","tradition":"buddhist","country_code":"my"}},{"type":"Feature","geometry":{"type":"Point","coordinates":[101.6115982,3.0967384]},"properties":{"name":"Fo Guang Shan (Malaysia)","name:en":"Fo Guang Shan (Malaysia)","tradition":"buddhist","addr:street":"Jalan SS 3/33","addr:housenumber":"2","addr:city":"Petaling Jaya","country_code":"my"}},{"type":"Feature","geometry":{"type":"Point","coordinates":[110.3529967,1.5456169]},"properties":{"name":"Lim Fah San Temple","tradition":"buddhist","country_code":"my"}},{"type":"Feature","geometry":{"type":"Point","coordinates":[113.7555756,3.805663]},"properties":{"name":"Pondok Datuk","tradition":"buddhist","country_code":"my"}},{"type":"Feature","geometry":{"type":"Point","coordinates":[101.6282375,3.1123677]},"properties":{"name":"Seng Wong Kong Temple","tradition":"buddhist","country_code":"my"}},{"type":"Feature","geometry":{"type":"Point","coordinates":[103.3117608,3.7930583]},"properties":{"name":"Tokong Shin Shi","tradition":"buddhist","country_code":"my"}},{"type":"Feature","geometry":{"type":"Point","coordinates":[103.30118,3.80852]},"properties":{"name":"Pau Kong Temple","tradition":"buddhist","country_code":"my"}},{"type":"Feature","geometry":{"type":"Point","coordinates":[101.6842857,3.078553]},"properties":{"name":"FGS Da Zhi","tradition":"buddhist","country_code":"my"}},{"type":"Feature","geometry":{"type":"Point","coordinates":[118.1265804,5.8576158]},"properties":{"name":"Lord Bao Temple","name:en":"Lord Bao Temple","tradition":"buddhist","country_code":"my"}},{"type":"Feature","geometry":{"type":"Point","coordinates":[99.839834,6.3295232]},"properties":{"name":"Langkawi Moral Uplifting Society","tradition":"buddhist","country_code":"my"}},{"type":"Feature","geometry":{"type":"Point","coordinates":[99.8738702,6.3501529]},"properties":{"name":"Wat Tham","name:en":"Wat Tham","tradition":"buddhist","country_code":"my"}},{"type":"Feature","geometry":{"type":"Point","coordinates":[118.1115566,5.8421703]},"properties":{"name":"Tokong Kun Yam","name:en":"Kun Yam Temple","tradition":"buddhist","country_code":"my"}},{"type":"Feature","geometry":{"type":"Point","coordinates":[118.0864241,5.8342615]},"properties":{"name":"Tokong Puu Jih","name:en":"Puu Jih Shi Buddhist Temple","tradition":"buddhist","country_code":"my"}},{"type":"Feature","geometry":{"type":"Point","coordinates":[101.6883738,3.1281222]},"properties":{"name":"Tokong Seng Hong","tradition":"buddhist","country_code":"my"}},{"type":"Feature","geometry":{"type":"Point","coordinates":[100.278295,5.411175]},"properties":{"name":"Bat's Cave Temple","tradition":"buddhist","country_code":"my"}},{"type":"Feature","geometry":{"type":"Point","coordinates":[100.3716686,6.1254525]},"properties":{"name":"Wat Nikrodharam","name:en":"Nikrodharam Temple","tradition":"buddhist","country_code":"my","website":"https://www.facebook.com/WatNikrodharamBuddhisTemple"}},{"type":"Feature","geometry":{"type":"Point","coordinates":[101.129313,4.5574384]},"properties":{"name":"Kek Look Tong 极乐洞","name:en":"Kek Look Tong","tradition":"buddhist","country_code":"my"}},{"type":"Feature","geometry":{"type":"Point","coordinates":[116.049418,5.8960117]},"properties":{"name":"Temple","tradition":"buddhist","country_code":"my"}},{"type":"Feature","geometry":{"type":"Point","coordinates":[99.8741568,6.338133]},"properties":{"name":"Wat Koh Wanararm","name:en":"Wat Koh Wanararm","tradition":"buddhist","country_code":"my"}},{"type":"Feature","geometry":{"type":"Point","coordinates":[101.0875413,4.6316398]},"properties":{"name":"Loong Thow Ngam Temple","tradition":"buddhist","country_code":"my"}},{"type":"Feature","geometry":{"type":"Point","coordinates":[101.1142034,4.5662997]},"properties":{"name":"Ling Sen Tong Temple 灵仙岩","name:en":"Ling Sen Tong Temple","tradition":"buddhist","country_code":"my"}},{"type":"Feature","geometry":{"type":"Point","coordinates":[101.1154155,4.5637378]},"properties":{"name":"Sam Poh Tong 三宝洞","tradition":"buddhist","country_code":"my"}},{"type":"Feature","geometry":{"type":"Point","coordinates":[102.2452315,2.1980559]},"properties":{"name":"Guanyin Temple","tradition":"buddhist","country_code":"my"}},{"type":"Feature","geometry":{"type":"Point","coordinates":[101.1386556,4.5174638]},"properties":{"name":"广福岩","tradition":"buddhist","country_code":"my"}},{"type":"Feature","geometry":{"type":"Point","coordinates":[101.1151267,4.5583187]},"properties":{"name":"Da Seng Ngan","tradition":"buddhist","country_code":"my"}},{"type":"Feature","geometry":{"type":"Point","coordinates":[101.1134277,4.5590253]},"properties":{"name":"Kwan Yin Tong 观音洞","tradition":"buddhist","addr:housenumber":"Lot 21606","addr:city":"Ipoh","country_code":"my"}},{"type":"Feature","geometry":{"type":"Point","coordinates":[101.1445003,4.6190221]},"properties":{"name":"Chinese Crematorium Temple","tradition":"buddhist","country_code":"my"}},{"type":"Feature","geometry":{"type":"Point","coordinates":[100.6999805,4.1979142]},"properties":{"name":"Wat Sitawanaram","name:en":"Wat Sitawanaram","tradition":"buddhist","country_code":"my"}},{"type":"Feature","geometry":{"type":"Point","coordinates":[101.1225745,4.5624299]},"properties":{"name":"Pureland Amitabha Center","tradition":"buddhist","denomination":"pure_land","addr:housenumber":"844","addr:city":"Ipoh","country_code":"my"}},{"type":"Feature","geometry":{"type":"Point","coordinates":[101.5265721,2.9958021]},"properties":{"name":"Penganut Agama Buddha Shah Alam, Selangor","name:en":"Shah Alam Buddhist Society","tradition":"buddhist","country_code":"my","phone":"+60-351215186","website":"https://www.sabs.org.my/"}},{"type":"Feature","geometry":{"type":"Point","coordinates":[102.167625,6.1837206]},"properties":{"name":"Wat Pikulthong","tradition":"buddhist","country_code":"my"}},{"type":"Feature","geometry":{"type":"Point","coordinates":[102.1694526,6.18189]},"properties":{"name":"Wat Cheng Buddahavas temple","tradition":"buddhist","country_code":"my"}},{"type":"Feature","geometry":{"type":"Point","coordinates":[102.1880721,6.1777823]},"properties":{"name":"Wat Maisuwankhiri Temple","name:en":"Wat Maisuwankhiri Temple","tradition":"buddhist","country_code":"my"}},{"type":"Feature","geometry":{"type":"Point","coordinates":[113.0471856,3.1763756]},"properties":{"name":"Chinese Temple","tradition":"buddhist","country_code":"my"}},{"type":"Feature","geometry":{"type":"Point","coordinates":[103.8154778,1.5006483]},"properties":{"name":"Divine Destiny","tradition":"buddhist","addr:street":"Jalan Permas 10","addr:housenumber":"112-01","addr:postcode":"81750","country_code":"my","phone":"60197263639","website":"www.facebook.com/mastersifuchin"}},{"type":"Feature","geometry":{"type":"Point","coordinates":[101.4427138,3.0377325]},"properties":{"name":"Chinese Temple","tradition":"buddhist","country_code":"my"}},{"type":"Feature","geometry":{"type":"Point","coordinates":[101.1142585,4.5627448]},"properties":{"name":"Yok Sin Kun Temple","tradition":"buddhist","country_code":"my"}},{"type":"Feature","geometry":{"type":"Point","coordinates":[102.371692,6.1093409]},"properties":{"name":"Wat Phothikyan Phutthaktham","name:en":"Wat Phothikyan Phutthaktham","tradition":"buddhist","addr:postcode":"16300","country_code":"my"}},{"type":"Feature","geometry":{"type":"Point","coordinates":[102.193489,6.112823]},"properties":{"name":"Wat Pracacinaram Kulim","tradition":"buddhist","addr:postcode":"17030","country_code":"my"}},{"type":"Feature","geometry":{"type":"Point","coordinates":[102.2993161,2.7879012]},"properties":{"name":"云西宫","tradition":"buddhist","country_code":"my"}},{"type":"Feature","geometry":{"type":"Point","coordinates":[101.1560649,4.6442445]},"properties":{"name":"东华洞","name:en":"Dong Hua Cave","tradition":"buddhist","country_code":"my"}},{"type":"Feature","geometry":{"type":"Point","coordinates":[100.2777706,5.330423]},"properties":{"name":"Tua Peh Kong","name:en":"Tua Peh Kong","tradition":"buddhist","country_code":"my"}},{"type":"Feature","geometry":{"type":"Point","coordinates":[103.5504916,1.5515936]},"properties":{"name":"Temple Hill","tradition":"buddhist","country_code":"my"}},{"type":"Feature","geometry":{"type":"Point","coordinates":[101.6172026,3.0885188]},"properties":{"name":"Tho Guan Seng Temple","tradition":"buddhist","addr:street":"Jalan SS 9A/2","addr:housenumber":"289","addr:city":"Petaling Jaya","country_code":"my"}},{"type":"Feature","geometry":{"type":"Point","coordinates":[101.62911,3.1239975]},"properties":{"name":"Tow Boo Keong Temple","tradition":"buddhist","country_code":"my"}},{"type":"Feature","geometry":{"type":"Point","coordinates":[101.6271375,3.126943]},"properties":{"name":"Chinese Temple","tradition":"buddhist","country_code":"my"}},{"type":"Feature","geometry":{"type":"Point","coordinates":[116.6634651,5.9502042]},"properties":{"name":"華山聖祖宮","tradition":"buddhist","country_code":"my"}},{"type":"Feature","geometry":{"type":"Point","coordinates":[101.077459,4.5808168]},"properties":{"name":"Kek Lok Seah Temple","tradition":"buddhist","country_code":"my"}},{"type":"Feature","geometry":{"type":"Point","coordinates":[102.2370212,6.1227591]},"properties":{"name":"吉兰丹佛教会","tradition":"buddhist","country_code":"my"}},{"type":"Feature","geometry":{"type":"Point","coordinates":[101.663416,3.5600793]},"properties":{"name":"Tokong Kuan Yin Kerk","name:en":"Kuan Yin Kerk Temple","tradition":"buddhist","addr:city":"Kuala Kubu Bharu","country_code":"my"}},{"type":"Feature","geometry":{"type":"Point","coordinates":[101.6302592,3.0501444]},"properties":{"name":"Kinrara Metta Buddhist Society","name:en":"Kinrara Metta Buddhist Society","tradition":"buddhist","addr:street":"Jalan Bangau 11","addr:housenumber":"B-G-02","addr:city":"Puchong","addr:postcode":"47170","country_code":"my","phone":"03-5887 3317","website":"http://www.kinrarametta.org/en/"}},{"type":"Feature","geometry":{"type":"Point","coordinates":[101.5888478,3.0766543]},"properties":{"name":"Tana Centre","name:en":"Tana Centre","tradition":"buddhist","denomination":"mahayana","addr:street":"Jalan SS15/4B","addr:housenumber":"74","addr:city":"Subang Jaya","addr:postcode":"47500","country_code":"my"}},{"type":"Feature","geometry":{"type":"Point","coordinates":[101.7354302,3.2042542]},"properties":{"name":"Datuk Gong Mini Shrine","tradition":"buddhist","addr:street":"Jalan Metro Wangsa","addr:housenumber":"1A","addr:city":"Kuala Lumpur","addr:postcode":"53300","country_code":"my"}},{"type":"Feature","geometry":{"type":"Point","coordinates":[100.2772762,5.42033]},"properties":{"name":"Buddhist stupas","name:en":"Buddhist stupas","tradition":"buddhist","country_code":"my"}},{"type":"Feature","geometry":{"type":"Point","coordinates":[101.7356406,3.2054467]},"properties":{"name":"Datuk Keramat Shrine","tradition":"buddhist","country_code":"my"}},{"type":"Feature","geometry":{"type":"Point","coordinates":[101.735141,3.203452]},"properties":{"name":"Latuk Gong Shrine","name:en":"Latuk Gong Shrine","tradition":"buddhist","country_code":"my"}},{"type":"Feature","geometry":{"type":"Point","coordinates":[102.2224413,2.2270339]},"properties":{"name":"般若佛學會（馬六甲）","tradition":"buddhist","addr:street":"Jalan PPP 2","addr:housenumber":"A-4","addr:city":"Plaza Pandan Perdana","addr:postcode":"75250","country_code":"my"}},{"type":"Feature","geometry":{"type":"Point","coordinates":[102.6635335,1.9750018]},"properties":{"name":"仙师宫","tradition":"buddhist","addr:city":"Muar","country_code":"my"}},{"type":"Feature","geometry":{"type":"Point","coordinates":[115.2349315,5.2771436]},"properties":{"name":"Kuan Yin Temple","tradition":"buddhist","country_code":"my"}},{"type":"Feature","geometry":{"type":"Point","coordinates":[101.0146401,4.5133832]},"properties":{"name":"Kuan Yin Temple","tradition":"buddhist","addr:city":"Papan","country_code":"my"}},{"type":"Feature","geometry":{"type":"Point","coordinates":[103.0533446,1.750218]},"properties":{"name":"Tokong Buddha Senggarang","tradition":"buddhist","country_code":"my"}},{"type":"Feature","geometry":{"type":"Point","coordinates":[100.2590573,5.351966]},"properties":{"name":"妙觉林","tradition":"buddhist","country_code":"my"}},{"type":"Feature","geometry":{"type":"Point","coordinates":[100.5078324,5.332501]},"properties":{"name":"南云寺","tradition":"buddhist","country_code":"my"}},{"type":"Feature","geometry":{"type":"Point","coordinates":[103.7007113,1.5025951]},"properties":{"name":"天后宫","tradition":"buddhist","addr:street":"Lorong Mempelam","addr:city":"Johor Bahru","addr:postcode":"81200","country_code":"my"}},{"type":"Feature","geometry":{"type":"Point","coordinates":[103.7790812,1.4728756]},"properties":{"name":"新山镇安古庙","tradition":"buddhist","country_code":"my"}},{"type":"Feature","geometry":{"type":"Point","coordinates":[100.7533176,4.843325]},"properties":{"name":"Taiping Insight Meditation Society","tradition":"buddhist","denomination":"theravada","addr:street":"Lorong Merdeka 3","addr:housenumber":"160","addr:city":"Taiping","addr:postcode":"34000","country_code":"my","phone":"+60 13-523 0288"}},{"type":"Feature","geometry":{"type":"Point","coordinates":[101.1983577,4.2571062]},"properties":{"name":"Gotamabuddhavihāra","name:en":"Vihara Buddha Gotama","tradition":"buddhist","denomination":"theravada","addr:street":"Jalan Besar","addr:housenumber":"121","addr:city":"Temoh","addr:postcode":"35350","country_code":"my","website":"https://www.vbgnet.org/"}},{"type":"Feature","geometry":{"type":"Point","coordinates":[100.7640997,4.8348118]},"properties":{"name":"Sāsanārakkha","name:en":"Sāsanārakkha Buddhist Sanctuary","tradition":"buddhist","denomination":"theravada","addr:street":"Sīmā St.","addr:city":"Tàipíng","addr:postcode":"34000","country_code":"my","phone":"+601116011198","website":"https://sasanarakkha.org/"}},{"type":"Feature","geometry":{"type":"Point","coordinates":[100.4860224,5.3368691]},"properties":{"name":"威中（大山脚）净宗学会","tradition":"buddhist","country_code":"my"}},{"type":"Feature","geometry":{"type":"Point","coordinates":[100.4812388,5.6297737]},"properties":{"name":"康宁寺","tradition":"buddhist","country_code":"my"}},{"type":"Feature","geometry":{"type":"Point","coordinates":[100.4953685,5.6346983]},"properties":{"name":"斗母宫","tradition":"buddhist","country_code":"my"}},{"type":"Feature","geometry":{"type":"Point","coordinates":[100.4977073,5.6349412]},"properties":{"name":"靈隐寺法主坛","tradition":"buddhist","country_code":"my"}},{"type":"Feature","geometry":{"type":"Point","coordinates":[100.5053195,5.6365107]},"properties":{"name":"Wat Damrong Ratanaran","tradition":"buddhist","country_code":"my"}},{"type":"Feature","geometry":{"type":"Point","coordinates":[101.0810847,4.6250992]},"properties":{"name":"Wat Mek Praswit Temple","tradition":"buddhist","country_code":"my"}},{"type":"Feature","geometry":{"type":"Point","coordinates":[101.1549618,4.6041149]},"properties":{"name":"Enlightened Heart Tibetan Buddhist temple","tradition":"buddhist","addr:street":"taman sri tambun","addr:city":"tambun","addr:postcode":"31400","country_code":"my"}},{"type":"Feature","geometry":{"type":"Point","coordinates":[101.1557876,4.6025497]},"properties":{"name":"Persatuan penganut Dewa Jingang Jing She","tradition":"buddhist","addr:street":"tambun rata","addr:city":"ipoh","addr:postcode":"31400","country_code":"my"}},{"type":"Feature","geometry":{"type":"Point","coordinates":[100.6499147,5.8136775]},"properties":{"name":"Wat Thaicharen","tradition":"buddhist","country_code":"my"}},{"type":"Feature","geometry":{"type":"Point","coordinates":[102.0550361,4.1859565]},"properties":{"name":"Thean Hou Temple","name:en":"Thean Hou Temple","tradition":"buddhist","country_code":"my"}},{"type":"Feature","geometry":{"type":"Point","coordinates":[102.2268561,2.2119505]},"properties":{"name":"Tekchen Choling Buddist Temple","tradition":"buddhist","denomination":"tibetan","country_code":"my"}},{"type":"Feature","geometry":{"type":"Point","coordinates":[100.2722536,5.4007174]},"properties":{"name":"Po Lin","tradition":"buddhist","country_code":"my"}},{"type":"Feature","geometry":{"type":"Point","coordinates":[101.7712076,3.1280526]},"properties":{"name":"呒天宫","tradition":"buddhist","country_code":"my"}},{"type":"Feature","geometry":{"type":"Point","coordinates":[100.337592,5.4142654]},"properties":{"name":"Leong San Tong Khoo Kongsi","tradition":"buddhist","addr:street":"Medan Cannon","addr:housenumber":"18","addr:city":"George Town","addr:postcode":"10200","country_code":"my","website":"https://www.khookongsi.com.my/"}},{"type":"Feature","geometry":{"type":"Point","coordinates":[100.425271,5.0079488]},"properties":{"name":"Haiyou","name:en":"Haiyou","tradition":"buddhist","country_code":"my"}},{"type":"Feature","geometry":{"type":"Point","coordinates":[100.4239963,5.0066271]},"properties":{"name":"Natukgong","name:en":"Natukgong","tradition":"buddhist","country_code":"my"}},{"type":"Feature","geometry":{"type":"Point","coordinates":[102.6400528,2.0976016]},"properties":{"name":"寺庙","tradition":"buddhist","country_code":"my"}},{"type":"Feature","geometry":{"type":"Point","coordinates":[102.10902,6.1839324]},"properties":{"name":"Wat Prachumthat","tradition":"buddhist","country_code":"my"}},{"type":"Feature","geometry":{"type":"Point","coordinates":[102.0869841,6.0226469]},"properties":{"name":"Wat Uttamaram","tradition":"buddhist","country_code":"my"}},{"type":"Feature","geometry":{"type":"Point","coordinates":[103.6805734,1.5185265]},"properties":{"name":"弥陀之家 东林寺 新山念佛会","tradition":"buddhist","denomination":"pure_land","addr:street":"Jalan Pertama 4","addr:housenumber":"18","addr:city":"Johor Bahru","addr:postcode":"81300","country_code":"my","phone":"0182664048","website":"https://www.facebook.com/donglinsi.jb/"}},{"type":"Feature","geometry":{"type":"Point","coordinates":[103.7721277,1.4850809]},"properties":{"name":"新山聖蓮宫","tradition":"buddhist","addr:street":"Jalan Cokmar 5","addr:housenumber":"10","addr:city":"Johor Bahru","addr:postcode":"80050","country_code":"my","phone":"0137576307"}},{"type":"Feature","geometry":{"type":"Point","coordinates":[101.2652148,4.1923183]},"properties":{"name":"Tan Gong Temple Tapah","name:en":"Tan Gong Temple Tapah","tradition":"buddhist","country_code":"my"}},{"type":"Feature","geometry":{"type":"Point","coordinates":[100.2738891,5.3997214]},"properties":{"name":"Kek Lok Si Temple","name:en":"Kek Lok Si Temple","tradition":"buddhist","addr:city":"Air Itam","addr:postcode":"11500","country_code":"my"}},{"type":"Feature","geometry":{"type":"Point","coordinates":[101.114418,4.563012]},"properties":{"name":"Dudjom New Treasure","tradition":"buddhist","country_code":"my"}},{"type":"Feature","geometry":{"type":"Point","coordinates":[101.1143686,4.601324]},"properties":{"name":"Wat Siribunyamagaram","tradition":"buddhist","country_code":"my"}},{"type":"Feature","geometry":{"type":"Point","coordinates":[103.6305355,1.54034]},"properties":{"name":"Persatuan Penganut Agama Buddha","tradition":"buddhist","addr:street":"Jalan Kebudayaan 11","addr:housenumber":"12, 14, 16","addr:city":"Taman Universiti","addr:postcode":"81300","country_code":"my"}},{"type":"Feature","geometry":{"type":"Point","coordinates":[103.6307088,1.5345395]},"properties":{"name":"Temple Er Lang","tradition":"buddhist","addr:street":"Jalan Kebangsaan 29","country_code":"my"}},{"type":"Feature","geometry":{"type":"Point","coordinates":[103.627251,1.5295948]},"properties":{"name":"Guan Ti Temple","tradition":"buddhist","addr:street":"Jalan Kejayaan 8","addr:city":"Skudai","addr:postcode":"81300","country_code":"my"}},{"type":"Feature","geometry":{"type":"Point","coordinates":[103.6211874,1.5406581]},"properties":{"name":"Buddhist Temple","tradition":"buddhist","addr:street":"Jalan Perdagangan 16","addr:city":"Skudai","addr:postcode":"81300","country_code":"my"}},{"type":"Feature","geometry":{"type":"Point","coordinates":[103.3173432,1.8195692]},"properties":{"name":"Buddist Temple","tradition":"buddhist","addr:street":"Jalan Susur","addr:city":"Simpang Renggam","addr:postcode":"86200","country_code":"my"}},{"type":"Feature","geometry":{"type":"Point","coordinates":[103.6190017,1.5336207]},"properties":{"name":"SSBC Taman Universiti","tradition":"buddhist","country_code":"my"}},{"type":"Feature","geometry":{"type":"Point","coordinates":[101.6696617,3.2088837]},"properties":{"name":"Persatuan Peh Malaysia","name:en":"Peh Clan Association","tradition":"buddhist","country_code":"my"}},{"type":"Feature","geometry":{"type":"Point","coordinates":[111.8293459,2.3075207]},"properties":{"name":"Sibu Buddhist Association","tradition":"buddhist","addr:street":"Jalan Tun Abang Haji Openg","addr:city":"SIBU","addr:postcode":"96000","country_code":"my"}},{"type":"Feature","geometry":{"type":"Point","coordinates":[103.6882702,1.4785458]},"properties":{"name":"Persatuan Penganut Buddha Fo Guang Shan (Malaysia)","tradition":"buddhist","country_code":"my"}},{"type":"Feature","geometry":{"type":"Point","coordinates":[101.1175632,4.5545701]},"properties":{"name":"无极巗","tradition":"buddhist","country_code":"my"}},{"type":"Feature","geometry":{"type":"Point","coordinates":[101.084328,4.608976]},"properties":{"name":"Guan Yin Dan Ba Xian Tong","name:en":"Guan Yin Dan Ba Xian Tong","tradition":"buddhist","country_code":"my"}},{"type":"Feature","geometry":{"type":"Point","coordinates":[101.6142738,3.0216676]},"properties":{"name":"Ti-Ratana Lumbini Garden","name:en":"Ti-Ratana Lumbini Garden","tradition":"buddhist","addr:street":"Jalan Puteri 4/2","addr:housenumber":"36;38","addr:city":"Puchong","addr:postcode":"47100","country_code":"my","phone":"+603 8051 6630","website":"https://www.trlgpuchong.org"}},{"type":"Feature","geometry":{"type":"Point","coordinates":[101.6756043,3.128505]},"properties":{"name":"Ti-Ratana Bangsar","name:en":"Ti-Ratana Bangsar","tradition":"buddhist","addr:street":"Lorong Maarof","addr:housenumber":"17","addr:city":"Bangsar","addr:postcode":"59100","country_code":"my","website":"https://www.bangsar.ti-ratana.org"}},{"type":"Feature","geometry":{"type":"Point","coordinates":[101.7473866,3.0643092]},"properties":{"name":"Ti-Ratana Anggerik","tradition":"buddhist","denomination":"mahayana","addr:street":"Jalan 5/154","addr:housenumber":"Lot 6711","addr:city":"Taman Bukit Anggerik","addr:postcode":"56000","country_code":"my","website":"https://www.cheras.ti-ratana.org"}},{"type":"Feature","geometry":{"type":"Point","coordinates":[102.2349176,2.1939336]},"properties":{"name":"Shakyamuni Vihara Malacca","name:en":"Shakyamuni Vihara Malacca","tradition":"buddhist","denomination":"theravada","addr:street":"Jalan KSB 14","addr:housenumber":"41","addr:city":"Melaka","addr:postcode":"75200","country_code":"my","website":"https://www.shakyamunibuddha.org.my/"}},{"type":"Feature","geometry":{"type":"Point","coordinates":[102.2386213,2.2128451]},"properties":{"name":"Pu Yin Buddhist Temple","tradition":"buddhist","denomination":"mahayana","addr:street":"Jalan Kesidang 3/4","addr:housenumber":"10-G","addr:city":"Melaka","addr:postcode":"75300","country_code":"my"}},{"type":"Feature","geometry":{"type":"Point","coordinates":[101.7087574,3.061631]},"properties":{"name":"Amitabha Buddhist Society of Kuala Lumpur","name:en":"Amitabha Buddhist Society of Kuala Lumpur","tradition":"buddhist","country_code":"my"}},{"type":"Feature","geometry":{"type":"Point","coordinates":[101.1472792,4.5079773]},"properties":{"name":"四面佛洞","name:en":"Gua Naga Mas","tradition":"buddhist","country_code":"my"}},{"type":"Feature","geometry":{"type":"Point","coordinates":[102.5450301,2.27233]},"properties":{"name":"三圣宫","tradition":"buddhist","country_code":"my"}},{"type":"Feature","geometry":{"type":"Point","coordinates":[103.6394808,2.6473522]},"properties":{"name":"Persatuan Penganut Agama Buddha Endau","tradition":"buddhist","country_code":"my"}},{"type":"Feature","geometry":{"type":"Point","coordinates":[101.6001146,3.1275814]},"properties":{"name":"Hean Tian Siong Teh Kiong","tradition":"buddhist","country_code":"my"}},{"type":"Feature","geometry":{"type":"Point","coordinates":[101.6712106,3.2127134]},"properties":{"name":"Sky Jade Hall","name:en":"Sky Jade Hall","tradition":"buddhist","country_code":"my"}},{"type":"Feature","geometry":{"type":"Point","coordinates":[101.6894159,3.1274393]},"properties":{"name":"Tua Lung Kong Temple","tradition":"buddhist","addr:street":"Jalan Syed Putra","addr:housenumber":"No. 8 (Lot 1148)","addr:city":"Kuala Lumpur","addr:postcode":"50460","country_code":"my"}},{"type":"Feature","geometry":{"type":"Point","coordinates":[100.6950559,6.2289709]},"properties":{"name":"Wat Phikulthararam","tradition":"buddhist","country_code":"my"}},{"type":"Feature","geometry":{"type":"Point","coordinates":[102.6859745,2.443009]},"properties":{"name":"Chi Tian Miao","tradition":"buddhist","addr:street":"Lorong 2","addr:housenumber":"15","addr:city":"jementah","addr:postcode":"85200","country_code":"my"}},{"type":"Feature","geometry":{"type":"Point","coordinates":[110.352897,1.5348674]},"properties":{"name":"Poh Ka temple","tradition":"buddhist","country_code":"my"}},{"type":"Feature","geometry":{"type":"Point","coordinates":[101.6752865,3.1949508]},"properties":{"name":"Samnak Suriyo","name:en":"Samnak Suriyo","tradition":"buddhist","addr:street":"Jalan Terolak 8","addr:housenumber":"FF12","addr:city":"Kuala Lumpur","addr:postcode":"51200","country_code":"my","website":"https://2samnaksuriyokl.blogspot.com/"}},{"type":"Feature","geometry":{"type":"Point","coordinates":[101.6767112,3.1945006]},"properties":{"name":"Ji Sheng Tang Temple","name:en":"Ji Sheng Tang Temple","tradition":"buddhist","addr:street":"Jalan Cenderuh 7","addr:housenumber":"O4","addr:city":"Kuala Lumpur","addr:postcode":"51200","country_code":"my"}},{"type":"Feature","geometry":{"type":"Point","coordinates":[101.6770237,3.1953636]},"properties":{"name":"Fu Xing Temple","name:en":"Fu Xing Temple","tradition":"buddhist","addr:street":"Jalan Cenderuh","addr:housenumber":"R3 & R4","addr:city":"Kuala Lumpur","addr:postcode":"51200","country_code":"my"}},{"type":"Feature","geometry":{"type":"Point","coordinates":[101.6773019,3.1945916]},"properties":{"name":"Long Xing Temple","name:en":"Long Xing Temple","tradition":"buddhist","addr:street":"Jalan Cenderuh 4","addr:housenumber":"H7","addr:city":"Kuala Lumpur","addr:postcode":"51200","country_code":"my"}},{"type":"Feature","geometry":{"type":"Point","coordinates":[101.2542363,3.0209383]},"properties":{"name":"吉胆佛学会","tradition":"buddhist","country_code":"my"}},{"type":"Feature","geometry":{"type":"Point","coordinates":[103.9488968,1.4776971]},"properties":{"name":"buddhist temple","tradition":"buddhist","addr:street":"Jalan Delima","addr:city":"Pasir Gudang","addr:postcode":"81700","country_code":"my"}},{"type":"Feature","geometry":{"type":"Point","coordinates":[116.0997383,5.89609]},"properties":{"name":"Penampang Guan Ying Ting Buddhist Association","tradition":"buddhist","country_code":"my"}},{"type":"Feature","geometry":{"type":"Point","coordinates":[116.0991186,5.9243186]},"properties":{"name":"yin loh dian","name:en":"Yld","tradition":"buddhist","country_code":"my"}},{"type":"Feature","geometry":{"type":"Point","coordinates":[116.089218,5.975536]},"properties":{"name":"Jinshan Pavilion Guan Sheng Temple","tradition":"buddhist","country_code":"my"}},{"type":"Feature","geometry":{"type":"Point","coordinates":[116.0887756,5.9754542]},"properties":{"name":"Persatuan Pemujaan Tuhan Tze Che Fuoh Yuen","name:en":"Tze Che Fuoh Yuen God Worship Association","tradition":"buddhist","country_code":"my"}},{"type":"Feature","geometry":{"type":"Point","coordinates":[101.6925555,3.1722426]},"properties":{"name":"Guan Yin Temple","name:en":"Guan Yin Temple","tradition":"buddhist","country_code":"my"}},{"type":"Feature","geometry":{"type":"Point","coordinates":[101.7530349,3.1009278]},"properties":{"name":"Bodhi tree","tradition":"buddhist","country_code":"my"}},{"type":"Feature","geometry":{"type":"Point","coordinates":[103.5433879,1.6729068]},"properties":{"name":"西南宫","tradition":"buddhist","country_code":"my"}},{"type":"Feature","geometry":{"type":"Point","coordinates":[116.1723888,5.3223898]},"properties":{"name":"Guang Ji Temple","tradition":"buddhist","country_code":"my"}},{"type":"Feature","geometry":{"type":"Point","coordinates":[102.2461534,2.1972008]},"properties":{"name":"Lee Sian Neo Neo","name:en":"Lee Sian Neo Neo","tradition":"buddhist","country_code":"my"}},{"type":"Feature","geometry":{"type":"Point","coordinates":[102.2458464,2.197299]},"properties":{"name":"Persatuan Teo Chew Melaka","name:en":"Teo Chew Hui Kuan","tradition":"buddhist","country_code":"my"}},{"type":"Feature","geometry":{"type":"Point","coordinates":[102.2455942,2.1974794]},"properties":{"name":"Tian Hou Temple","name:en":"Tian Hou Temple","tradition":"buddhist","country_code":"my"}},{"type":"Feature","geometry":{"type":"Point","coordinates":[101.7177159,3.1332221]},"properties":{"name":"Buddha Jayanti Temple","name:en":"Buddha Jayanti Temple","tradition":"buddhist","country_code":"my"}},{"type":"Feature","geometry":{"type":"Point","coordinates":[100.6679005,5.9399771]},"properties":{"name":"Wat Thammaksiri Vararam (wat kura)","tradition":"buddhist","addr:city":"kampung kura","addr:postcode":"08320","country_code":"my"}},{"type":"Feature","geometry":{"type":"Point","coordinates":[100.305288,5.4589179]},"properties":{"name":"香山寺","tradition":"buddhist","country_code":"my"}},{"type":"Feature","geometry":{"type":"Point","coordinates":[101.7924714,3.3773027]},"properties":{"name":"Xian Ling Gong Guan Yin Temple","tradition":"buddhist","country_code":"my"}},{"type":"Feature","geometry":{"type":"Point","coordinates":[110.2657338,1.4817753]},"properties":{"name":"石角上湾头显圣宫","tradition":"buddhist","addr:street":"Jalan Rantau Panjang","addr:city":"Kuching","addr:postcode":"93250","country_code":"my"}},{"type":"Feature","geometry":{"type":"Point","coordinates":[111.4963049,2.042867]},"properties":{"name":"三元社","tradition":"buddhist","country_code":"my"}},{"type":"Feature","geometry":{"type":"Point","coordinates":[117.9041073,4.2649403]},"properties":{"name":"Lean Fu Tang","tradition":"buddhist","denomination":"vajrayana","addr:street":"Jalan Jambu","addr:city":"Tawau","country_code":"my"}},{"type":"Feature","geometry":{"type":"Point","coordinates":[117.9108639,4.2660387]},"properties":{"name":"Tawau Buddhist Lodge","tradition":"buddhist","country_code":"my"}},{"type":"Feature","geometry":{"type":"Point","coordinates":[118.6069259,4.4731964]},"properties":{"name":"Persatuan Buddhist Semporna","tradition":"buddhist","country_code":"my"}},{"type":"Feature","geometry":{"type":"Point","coordinates":[114.3208086,4.1777462]},"properties":{"name":"marudi tua pek kong","tradition":"buddhist","country_code":"my"}},{"type":"Feature","geometry":{"type":"Point","coordinates":[117.8928697,4.2752103]},"properties":{"name":"Persatuan Penganut Buddha Lean Peng Tawau","tradition":"buddhist","country_code":"my"}},{"type":"Feature","geometry":{"type":"Point","coordinates":[114.0137727,4.4523857]},"properties":{"name":"Tempat Rehat Sami Buddha","name:en":"Miri Pujut Thai Buddha Temple","tradition":"buddhist","addr:street":"Jalan Jepang 5","addr:housenumber":"1768","addr:city":"Miri","addr:postcode":"98000","country_code":"my","website":"https://www.facebook.com/profile.php?id=100064936830518"}},{"type":"Feature","geometry":{"type":"Point","coordinates":[110.3444287,1.5233707]},"properties":{"name":"Kuching Buddhist Society","tradition":"buddhist","country_code":"my"}},{"type":"Feature","geometry":{"type":"Point","coordinates":[110.3731329,1.5376913]},"properties":{"name":"Kuching Sa Thai Buddhist Association","tradition":"buddhist","country_code":"my"}},{"type":"Feature","geometry":{"type":"Point","coordinates":[112.018026,2.2878511]},"properties":{"name":"Yu Lung San Tian En Temple\nTokong Yu Lung San Tian En","tradition":"buddhist","country_code":"my"}},{"type":"Feature","geometry":{"type":"Point","coordinates":[102.9372193,1.8474719]},"properties":{"name":"菩提净寺","tradition":"buddhist","country_code":"my"}},{"type":"Feature","geometry":{"type":"Point","coordinates":[100.9204761,5.6762967]},"properties":{"name":"Wat Prakthat Palelai","tradition":"buddhist","country_code":"my"}},{"type":"Feature","geometry":{"type":"Point","coordinates":[102.9414213,1.8514]},"properties":{"name":"Persatuan Buddhist","tradition":"buddhist","country_code":"my"}},{"type":"Feature","geometry":{"type":"Point","coordinates":[101.6558491,3.2163674]},"properties":{"name":"Persatuan Penganut Buddha Jinjang","name:en":"Jinjang Buddhist Association","tradition":"buddhist","addr:street":"Jalan Benteng Barat","addr:housenumber":"30-31","country_code":"my"}},{"type":"Feature","geometry":{"type":"Point","coordinates":[102.9491633,1.8638958]},"properties":{"name":"峇株巴辖菩提佛学会","tradition":"buddhist","country_code":"my"}},{"type":"Feature","geometry":{"type":"Point","coordinates":[100.3155708,5.3858594]},"properties":{"name":"Pu Xian Temple","tradition":"buddhist","country_code":"my"}},{"type":"Feature","geometry":{"type":"Point","coordinates":[100.3976986,5.9732177]},"properties":{"name":"Tokong Poh Ann Keong Kong Teik Chong Ong","tradition":"buddhist","addr:city":"Kota Sarang Semut","addr:postcode":"06800","country_code":"my"}},{"type":"Feature","geometry":{"type":"Point","coordinates":[102.2361638,6.1422069]},"properties":{"name":"Nang Ying Gong","tradition":"buddhist","country_code":"my"}},{"type":"Feature","geometry":{"type":"Point","coordinates":[100.4750373,5.5898305]},"properties":{"name":"Sammaditthi Meditation Grove","tradition":"buddhist","denomination":"theravada","addr:street":"Tanah Kubur Cina, Mukim Sungai Pasir","addr:housenumber":"Lot 165","addr:city":"Sungai Petani Kedah","addr:postcode":"08000","country_code":"my"}},{"type":"Feature","geometry":{"type":"Point","coordinates":[101.0759654,4.8203418]},"properties":{"name":"Tai Sing Koong","tradition":"buddhist","country_code":"my"}},{"type":"Feature","geometry":{"type":"Point","coordinates":[111.1688583,1.3543334]},"properties":{"name":"Chinese Temple","tradition":"buddhist","country_code":"my"}},{"type":"Feature","geometry":{"type":"Point","coordinates":[100.5064108,5.7309874]},"properties":{"name":"Hooi En Fat Yean Bedong Branch","tradition":"buddhist","country_code":"my"}},{"type":"Feature","geometry":{"type":"Point","coordinates":[101.680343,3.1779503]},"properties":{"name":"Ji De Temple","name:en":"Ji De Temple","tradition":"buddhist","country_code":"my"}},{"type":"Feature","geometry":{"type":"Point","coordinates":[101.6928559,3.1948428]},"properties":{"name":"Kuan Yin Teng Temple","name:en":"Kuan Yin Teng Temple","tradition":"buddhist","country_code":"my"}},{"type":"Feature","geometry":{"type":"Point","coordinates":[101.0348861,4.5806296]},"properties":{"name":"Fo Guang Shan Ipoh","name:en":"Fo Guang Shan Ipoh","tradition":"buddhist","country_code":"my"}},{"type":"Feature","geometry":{"type":"Point","coordinates":[100.2972451,5.3923924]},"properties":{"name":"Fo Guang Shan Penang","name:en":"Fo Guang Shan Penang","tradition":"buddhist","country_code":"my"}},{"type":"Feature","geometry":{"type":"Point","coordinates":[110.2448736,1.4387224]},"properties":{"name":"KBS Buddhist Village","name:en":"KBS Buddhist Village","tradition":"buddhist","country_code":"my","website":"https://village.kbs.org.my/"}},{"type":"Feature","geometry":{"type":"Point","coordinates":[110.198191,1.4199661]},"properties":{"name":"齐天府","tradition":"buddhist","country_code":"my"}},{"type":"Feature","geometry":{"type":"Point","coordinates":[110.1997628,1.42176]},"properties":{"name":"汤路观音菩萨","tradition":"buddhist","country_code":"my"}},{"type":"Feature","geometry":{"type":"Point","coordinates":[110.2338349,1.5269532]},"properties":{"name":"Dhamma Earth Kuching","name:en":"Dhamma Earth Kuching","tradition":"buddhist","country_code":"my","website":"https://dhammaearth.org/"}},{"type":"Feature","geometry":{"type":"Point","coordinates":[100.3557288,6.0982613]},"properties":{"name":"吉打亚罗士打南方园三宝佛堂四面佛寺","tradition":"buddhist","country_code":"my","phone":"+60-194112360"}},{"type":"Feature","geometry":{"type":"Point","coordinates":[100.7470905,4.8621813]},"properties":{"name":"Tokong Ling Nam Ku Miew","name:en":"Ling Nam Ku Miew Temple","tradition":"buddhist","country_code":"my"}},{"type":"Feature","geometry":{"type":"Point","coordinates":[101.7054652,3.1329453]},"properties":{"name":"Chee Chuk Lam Kwam Imm Thong","name:en":"Chee Chuk Lam Kwam Imm Thong","tradition":"buddhist","country_code":"my"}},{"type":"Feature","geometry":{"type":"Point","coordinates":[103.5825448,1.5313477]},"properties":{"name":"江加辅来紫竹林观音庙","tradition":"buddhist","country_code":"my","phone":"+60-177876696","website":"https://www.facebook.com/kangkarpulaizizhuling/"}},{"type":"Feature","geometry":{"type":"Point","coordinates":[101.9036367,3.5177748]},"properties":{"name":"文冬紫竹林观音堂","tradition":"buddhist","country_code":"my","website":"https://eastcoast.sinchew.com.my/news/20251108/eastcoast/7010877"}},{"type":"Feature","geometry":{"type":"Point","coordinates":[101.6600696,3.2076453]},"properties":{"name":"Nyingmapa Baiyu Jielukxi Buddhist Centre South Jinjang","name:en":"Nyingmapa Baiyu Jielukxi Buddhist Centre South Jinjang","tradition":"buddhist","country_code":"my","website":"https://www.facebook.com/p/%E5%AF%9C%E7%91%AA%E5%B7%B4%E7%99%BD%E7%8E%89%E8%A5%BF%E8%97%8F%E6%A5%B5%E6%A8%82%E5%AF%BA-Nyingmapa-Baiyu-Jielukxi-Buddhist-Centre-100064662733502/"}},{"type":"Feature","geometry":{"type":"Point","coordinates":[101.6526269,3.2154558]},"properties":{"name":"弥陀极乐精舍","tradition":"buddhist","country_code":"my","phone":"+60-125253226"}},{"type":"Feature","geometry":{"type":"Point","coordinates":[101.6365415,3.2150474]},"properties":{"name":"甲洞慈祥阁观音堂","tradition":"buddhist","country_code":"my"}},{"type":"Feature","geometry":{"type":"Point","coordinates":[101.1641983,4.470782]},"properties":{"name":"Gopeng Guanyin Ancient Temple","name:en":"Gopeng Guanyin Ancient Temple","tradition":"buddhist","country_code":"my","website":"https://www.facebook.com/p/%E5%8A%A1%E8%BE%B9%E8%A7%82%E9%9F%B3%E5%8F%A4%E5%BA%99-100064587409931/"}},{"type":"Feature","geometry":{"type":"Point","coordinates":[101.0998905,4.6436426]},"properties":{"name":"Perak Cave Temple","name:en":"Perak Cave Temple","tradition":"buddhist","country_code":"my","phone":"+60-1123584126","website":"https://perak.sinchew.com.my/news/20260213/perak/7270882"}},{"type":"Feature","geometry":{"type":"Point","coordinates":[101.5797526,2.9618276]},"properties":{"name":"Sugata Dharma Vihara","tradition":"buddhist","addr:street":"Jalan SP 1","country_code":"my"}},{"type":"Feature","geometry":{"type":"Point","coordinates":[103.6049924,1.6588688]},"properties":{"name":"善莲堂（观音堂）","tradition":"buddhist","addr:street":"Jalan Sekolah Cina","addr:housenumber":"C12","addr:city":"Kulai","addr:postcode":"81000","country_code":"my"}},{"type":"Feature","geometry":{"type":"Point","coordinates":[100.6705543,4.8200542]},"properties":{"name":"中坛元帅","tradition":"buddhist","country_code":"my"}},{"type":"Feature","geometry":{"type":"Point","coordinates":[100.6719836,4.8203489]},"properties":{"name":"南海忠宫善佛堂道济活佛","tradition":"buddhist","country_code":"my","phone":"+60-197269211","website":"https://chat.whatsapp.com/IHrBHKOAPHUGoQXgogX8XR"}},{"type":"Feature","geometry":{"type":"Point","coordinates":[100.6725379,4.8203256]},"properties":{"name":"乡德佛堂","tradition":"buddhist","country_code":"my"}},{"type":"Feature","geometry":{"type":"Point","coordinates":[100.2954285,5.4512647]},"properties":{"name":"Kuan Yin Temple","tradition":"buddhist","country_code":"my"}},{"type":"Feature","geometry":{"type":"Point","coordinates":[101.6519436,3.0939229]},"properties":{"name":"Poh Lum Fatt Yuen Buddist Temple","tradition":"buddhist","addr:street":"Jalan Gasing","country_code":"my"}},{"type":"Feature","geometry":{"type":"Point","coordinates":[103.7630645,1.4605758]},"properties":{"name":"Kuil Kuno Johor","name:en":"Johor Old Chinese Temple","tradition":"buddhist","addr:street":"Jalan Trus","addr:housenumber":"Lot 653","addr:city":"Johor Bahru","addr:postcode":"80000","country_code":"my"}},{"type":"Feature","geometry":{"type":"Point","coordinates":[101.5936715,3.0640391]},"properties":{"name":"Subang Jaya Buddhist Association","name:en":"Subang Jaya Buddhist Association","tradition":"buddhist","addr:street":"Persiaran Kewajipan","addr:housenumber":"SS13","addr:city":"Subang Jaya","addr:postcode":"47500","country_code":"my","phone":"+603 5634 8181","website":"https://sjba.org/"}},{"type":"Feature","geometry":{"type":"Point","coordinates":[101.6248521,3.0576446]},"properties":{"name":"Qi Xuan Nu Temple","tradition":"buddhist","addr:street":"Jalan Belatuk","addr:housenumber":"39633","addr:city":"Puchong","addr:postcode":"47100","country_code":"my"}},{"type":"Feature","geometry":{"type":"Point","coordinates":[101.5944627,3.0515378]},"properties":{"name":"Summit Dharma Vihara","tradition":"buddhist","addr:street":"Persiaran Subang","addr:housenumber":"18","addr:city":"Subang Jaya","addr:postcode":"47500","country_code":"my"}},{"type":"Feature","geometry":{"type":"Point","coordinates":[101.6385279,3.0576768]},"properties":{"name":"Kuan Yin Temple","tradition":"buddhist","addr:street":"Jalan Puchong","addr:housenumber":"Lot 6430","addr:city":"Puchong","addr:postcode":"47100","country_code":"my"}},{"type":"Feature","geometry":{"type":"Point","coordinates":[101.3729497,4.473365]},"properties":{"name":"Kow Wong Yea Temple","tradition":"buddhist","addr:city":"Cameron Highlands","country_code":"my"}},{"type":"Feature","geometry":{"type":"Point","coordinates":[116.0760337,5.9504638]},"properties":{"name":"Peak Nam Toong Temple","tradition":"buddhist","country_code":"my"}},{"type":"Feature","geometry":{"type":"Point","coordinates":[100.2783397,5.3933765]},"properties":{"name":"Pertubuhan Hui Yin Seh","tradition":"buddhist","addr:street":"Lintang Paya Terubong 3","addr:housenumber":"36","country_code":"my"}},{"type":"Feature","geometry":{"type":"Point","coordinates":[100.2863557,5.3165716]},"properties":{"name":"Wisma Than Hsiang","tradition":"buddhist","country_code":"my"}},{"type":"Feature","geometry":{"type":"Point","coordinates":[100.3028164,5.3853686]},"properties":{"name":"圣王宫（凤山寺）","tradition":"buddhist","country_code":"my"}},{"type":"Feature","geometry":{"type":"Point","coordinates":[100.3149917,5.3936597]},"properties":{"name":"Peh Be Thong","tradition":"buddhist","country_code":"my"}},{"type":"Feature","geometry":{"type":"Point","coordinates":[100.313734,5.4337879]},"properties":{"name":"Meow Heong Lim Temple","tradition":"buddhist","country_code":"my"}},{"type":"Feature","geometry":{"type":"Point","coordinates":[100.3141311,5.4277983]},"properties":{"name":"Poh Oo Tong Temple","tradition":"buddhist","country_code":"my"}},{"type":"Feature","geometry":{"type":"Point","coordinates":[100.3348161,5.4184148]},"properties":{"name":"Tokong Ng Fook Thong","name:en":"Ng Fook Thong Temple","tradition":"buddhist","addr:street":"Lebuh Chulia","addr:housenumber":"407","addr:city":"Georgetown","addr:postcode":"10200","country_code":"my"}},{"type":"Feature","geometry":{"type":"Point","coordinates":[110.34775,1.5575077]},"properties":{"name":"Hong San Si Temple","tradition":"buddhist","country_code":"my"}},{"type":"Feature","geometry":{"type":"Point","coordinates":[110.3490218,1.5571321]},"properties":{"name":"Tua Pek Kong Temple","tradition":"buddhist","country_code":"my"}},{"type":"Feature","geometry":{"type":"Point","coordinates":[100.2992924,5.4083463]},"properties":{"name":"Heong Giam Si Temple","tradition":"buddhist","country_code":"my"}},{"type":"Feature","geometry":{"type":"Point","coordinates":[100.3034378,5.4365173]},"properties":{"name":"Ehipassiko Buddhist Meditation Society","tradition":"buddhist","country_code":"my"}},{"type":"Feature","geometry":{"type":"Point","coordinates":[110.3611109,1.5353517]},"properties":{"name":"San Seng Tong Temple","tradition":"buddhist","country_code":"my"}},{"type":"Feature","geometry":{"type":"Point","coordinates":[100.2852458,5.314082]},"properties":{"name":"Snake Temple","tradition":"buddhist","addr:street":"Jalan Tokong Ular","addr:city":"Bayan Lepas","addr:postcode":"11900","country_code":"my"}},{"type":"Feature","geometry":{"type":"Point","coordinates":[100.3072942,5.4087611]},"properties":{"name":"Mahindarama Buddhist Temple","tradition":"buddhist","addr:city":"George Town","country_code":"my"}},{"type":"Feature","geometry":{"type":"Point","coordinates":[100.2826295,5.3993837]},"properties":{"name":"天灵堂","tradition":"buddhist","country_code":"my"}},{"type":"Feature","geometry":{"type":"Point","coordinates":[100.2872713,5.4041079]},"properties":{"name":"Poh Hua Tong Temple","tradition":"buddhist","country_code":"my"}},{"type":"Feature","geometry":{"type":"Point","coordinates":[100.3134177,5.3818154]},"properties":{"name":"Phor Tor Temple","tradition":"buddhist","country_code":"my"}},{"type":"Feature","geometry":{"type":"Point","coordinates":[100.3951923,5.3957226]},"properties":{"name":"Persatuan Buddhis Seberang Jaya","tradition":"buddhist","country_code":"my"}},{"type":"Feature","geometry":{"type":"Point","coordinates":[102.2494138,2.1965846]},"properties":{"name":"Aw Hai Thian","name:en":"Aw Hai Thian","tradition":"buddhist","country_code":"my","website":"https://www.facebook.com/profile.php?id=100022757363393"}},{"type":"Feature","geometry":{"type":"Point","coordinates":[102.246797,2.1979811]},"properties":{"name":"Xiang Lin Si Temple","name:en":"Xiang Lin Si Temple","tradition":"buddhist","country_code":"my"}},{"type":"Feature","geometry":{"type":"Point","coordinates":[100.3683367,6.1364487]},"properties":{"name":"Wat Samosuran Rachanupradit","tradition":"buddhist","country_code":"my"}},{"type":"Feature","geometry":{"type":"Point","coordinates":[101.1195017,4.7175087]},"properties":{"name":"Buddhist Temple","tradition":"buddhist","country_code":"my"}},{"type":"Feature","geometry":{"type":"Point","coordinates":[100.5551732,5.3695668]},"properties":{"name":"居林广福宮","tradition":"buddhist","addr:housenumber":"居林广福宮","country_code":"my"}},{"type":"Feature","geometry":{"type":"Point","coordinates":[100.428423,6.2658151]},"properties":{"name":"Wat Chittraram","tradition":"buddhist","country_code":"my"}},{"type":"Feature","geometry":{"type":"Point","coordinates":[101.7158626,3.159588]},"properties":{"name":"Kun Yam Thong Temple","name:en":"Kun Yam Thong Temple","tradition":"buddhist","addr:street":"Jalan Ampang","addr:housenumber":"161","country_code":"my"}},{"type":"Feature","geometry":{"type":"Point","coordinates":[110.3277714,1.4694136]},"properties":{"name":"Sam San Kuet Bong Temple","tradition":"buddhist","country_code":"my"}},{"type":"Feature","geometry":{"type":"Point","coordinates":[100.4762195,5.1686381]},"properties":{"name":"Kuan Yin Tong","tradition":"buddhist","country_code":"my"}},{"type":"Feature","geometry":{"type":"Point","coordinates":[101.3979832,4.4176706]},"properties":{"name":"金马仑德教会振胜阁","tradition":"buddhist","country_code":"my"}},{"type":"Feature","geometry":{"type":"Point","coordinates":[101.7063289,3.1474578]},"properties":{"name":"Persatuan Penganut Dewa Teoh Kong Seng Kuan Kuala Lumpur","name:en":"Bukit Ceylon Chinese Temple","tradition":"buddhist","addr:street":"Jalan Sahabat","addr:housenumber":"8","addr:city":"Kuala Lumpur","addr:postcode":"50200","country_code":"my","website":"https://www.facebook.com/profile.php?id=100069414476910"}},{"type":"Feature","geometry":{"type":"Point","coordinates":[100.8518453,5.6834212]},"properties":{"name":"Wat Viboonvadaram","tradition":"buddhist","country_code":"my"}},{"type":"Feature","geometry":{"type":"Point","coordinates":[102.9760282,2.4552646]},"properties":{"name":"拿督公","tradition":"buddhist","country_code":"my"}},{"type":"Feature","geometry":{"type":"Point","coordinates":[103.7621462,1.491112]},"properties":{"name":"新山美樂花園伯公宮","tradition":"buddhist","addr:street":"Jalan Beringin","addr:city":"Johor Bahru","addr:postcode":"80250","country_code":"my"}},{"type":"Feature","geometry":{"type":"Point","coordinates":[103.7598219,1.4924902]},"properties":{"name":"Persatuan Penganut Dewi Kuan Yin Nan Hai Fu Tzu","tradition":"buddhist","addr:street":"Jalan Cengai","addr:city":"Johor Bahru","addr:postcode":"80250","country_code":"my"}},{"type":"Feature","geometry":{"type":"Point","coordinates":[100.5102451,5.428196]},"properties":{"name":"Wat Rajaphohong","name:en":"Rajchaphohong Thai Buddhist Temple","tradition":"buddhist","country_code":"my"}},{"type":"Feature","geometry":{"type":"Point","coordinates":[101.4591425,3.1633076]},"properties":{"name":"Maha Su Meru","tradition":"buddhist","country_code":"my"}},{"type":"Feature","geometry":{"type":"Point","coordinates":[103.8751434,1.5648954]},"properties":{"name":"Wat Pā Santi","name:en":"Santi Forest Monastery","tradition":"buddhist","denomination":"theravada","addr:street":"Jalan Ponorogo","addr:city":"Johor Bahru","addr:postcode":"81800","country_code":"my"}},{"type":"Feature","geometry":{"type":"Point","coordinates":[100.3133909,5.4317284]},"properties":{"name":"Wat Chaiyamangkalaram","name:en":"Chayamangakalaram Temple","tradition":"buddhist","addr:street":"Lorong Burma","addr:housenumber":"17","addr:city":"George Town","addr:postcode":"10250","country_code":"my"}},{"type":"Feature","geometry":{"type":"Point","coordinates":[100.3144153,5.4310166]},"properties":{"name":"Dhammikarama Burmese Temple","tradition":"buddhist","addr:street":"Lorong Burma","addr:city":"George Town","addr:postcode":"10250","country_code":"my"}},{"type":"Feature","geometry":{"type":"Point","coordinates":[100.3836395,5.4315209]},"properties":{"name":"Rumah Berhala Guan Yin Ting Dou Mu Gong","tradition":"buddhist","country_code":"my","phone":"+60-125242334","website":"https://www.facebook.com/profile.php?id=100064698730712"}},{"type":"Feature","geometry":{"type":"Point","coordinates":[100.3877647,5.4415718]},"properties":{"name":"灵应社","tradition":"buddhist","country_code":"my"}},{"type":"Feature","geometry":{"type":"Point","coordinates":[101.4433059,3.0258145]},"properties":{"name":"Klang Coast Buddhist Association","name:en":"Klang Coast Buddhist Association","tradition":"buddhist","country_code":"my"}},{"type":"Feature","geometry":{"type":"Point","coordinates":[111.8261098,2.2872037]},"properties":{"name":"Tua Pek Kong Temple","name:en":"Tua Pek Kong Temple","tradition":"buddhist","country_code":"my"}},{"type":"Feature","geometry":{"type":"Point","coordinates":[100.4737727,5.3554342]},"properties":{"name":"Persatuan Agama Buddha Seberang Perai Tengah 威中县佛教会","tradition":"buddhist","addr:city":"Bukit Mertajam","country_code":"my"}},{"type":"Feature","geometry":{"type":"Point","coordinates":[113.0419184,3.170627]},"properties":{"name":"Tokong Tua Pek Kong","tradition":"buddhist","country_code":"my"}},{"type":"Feature","geometry":{"type":"Point","coordinates":[100.5276209,5.0117558]},"properties":{"name":"Persatuan Buddhist Krian","tradition":"buddhist","country_code":"my"}},{"type":"Feature","geometry":{"type":"Point","coordinates":[101.703927,3.0984622]},"properties":{"name":"Fatt Wah Temple","name:en":"Fatt Wah Temple","tradition":"buddhist","country_code":"my"}},{"type":"Feature","geometry":{"type":"Point","coordinates":[101.7113881,3.0862938]},"properties":{"name":"阮梁圣佛庙","tradition":"buddhist","addr:street":"Jalan 13A","addr:housenumber":"10","country_code":"my"}},{"type":"Feature","geometry":{"type":"Point","coordinates":[100.7364035,4.8572304]},"properties":{"name":"Persatuan Buddha Taiping","tradition":"buddhist","country_code":"my"}},{"type":"Feature","geometry":{"type":"Point","coordinates":[101.6876484,3.1218324]},"properties":{"name":"Thean Hou Temple","name:en":"Thean Hou Temple","tradition":"buddhist","country_code":"my"}},{"type":"Feature","geometry":{"type":"Point","coordinates":[116.2338984,6.1748062]},"properties":{"name":"Pagoda","tradition":"buddhist","country_code":"my"}},{"type":"Feature","geometry":{"type":"Point","coordinates":[101.694427,3.1831955]},"properties":{"name":"Sri Jayanti Buddhist Temple","name:en":"Sri Jayanti Buddhist Temple","tradition":"buddhist","country_code":"my","website":"https://www.facebook.com/p/Sri-Lanka-Buddhist-Temple-100069446246659/"}},{"type":"Feature","geometry":{"type":"Point","coordinates":[101.6984541,3.1402986]},"properties":{"name":"Chan See Shu Yuen Temple","name:en":"Chan See Shu Yuen Temple","tradition":"buddhist","addr:street":"Jalan Petaling","addr:housenumber":"172","country_code":"my","website":"https://cssykl.com/"}},{"type":"Feature","geometry":{"type":"Point","coordinates":[101.6988286,3.139513]},"properties":{"name":"Tokong Guan Yin Wei Zhen Gong","name:en":"Guan Yin Wei Zhen Gong Temple","tradition":"buddhist","addr:street":"Jalan Maharajalela","addr:housenumber":"10","country_code":"my","phone":"+60-162148650","website":"https://www.facebook.com/wzghokkienlang"}},{"type":"Feature","geometry":{"type":"Point","coordinates":[101.6867568,3.128108]},"properties":{"name":"Buddhist Maha Vihara Buddha Hall","tradition":"buddhist","addr:street":"Jalan Berhala","addr:housenumber":"123","addr:city":"Kuala Lumpur","addr:postcode":"50470","country_code":"my"}},{"type":"Feature","geometry":{"type":"Point","coordinates":[118.0433589,5.8485161]},"properties":{"name":"Laughing Buddha Temple","tradition":"buddhist","country_code":"my"}},{"type":"Feature","geometry":{"type":"Point","coordinates":[102.0776492,2.9981164]},"properties":{"name":"Kwong Fook Kong Temple","name:en":"Kwong Fook Kong Temple","tradition":"buddhist","country_code":"my"}},{"type":"Feature","geometry":{"type":"Point","coordinates":[102.0694667,2.9966826]},"properties":{"name":"Persatuan Penganut Agama Buddha Titi Jelebu","tradition":"buddhist","addr:street":"Taman Mawar","addr:housenumber":"274","country_code":"my"}},{"type":"Feature","geometry":{"type":"Point","coordinates":[111.8740424,2.2769409]},"properties":{"name":"诗巫佛教居士林 Sibu Buddhist Lodge","name:en":"Sibu Buddhist Lodge","tradition":"buddhist","country_code":"my"}},{"type":"Feature","geometry":{"type":"Point","coordinates":[101.4275193,3.0506]},"properties":{"name":"Snake Temple 天福宫","tradition":"buddhist","country_code":"my"}},{"type":"Feature","geometry":{"type":"Point","coordinates":[100.5093581,5.3395375]},"properties":{"name":"大伯公庙","tradition":"buddhist","country_code":"my"}},{"type":"Feature","geometry":{"type":"Point","coordinates":[101.610488,3.1480175]},"properties":{"name":"Bandar Utama Buddhist Society","tradition":"buddhist","country_code":"my"}},{"type":"Feature","geometry":{"type":"Point","coordinates":[101.6677196,3.4121692]},"properties":{"name":"Monastery","tradition":"buddhist","country_code":"my"}},{"type":"Feature","geometry":{"type":"Point","coordinates":[102.2555222,2.1959631]},"properties":{"name":"Poh Sam Temple (Pih San Teng Temple)","name:en":"Poh Sam Temple (Pih San Teng Temple)","tradition":"buddhist","addr:city":"Melaka","addr:postcode":"75100","country_code":"my"}},{"type":"Feature","geometry":{"type":"Point","coordinates":[100.522232,5.3479054]},"properties":{"name":"Hai Tong Ma Temple 海东妈庙","name:en":"Hai Tong Ma Temple","tradition":"buddhist","addr:city":"Bukit Mertajam","addr:postcode":"14020","country_code":"my"}},{"type":"Feature","geometry":{"type":"Point","coordinates":[100.5543051,5.3757703]},"properties":{"name":"Persatuan Buddhist Kulim 居林佛教会","name:en":"Kulim Buddhist Association","tradition":"buddhist","country_code":"my"}},{"type":"Feature","geometry":{"type":"Point","coordinates":[102.6147753,2.5823443]},"properties":{"name":"Tokong Chin Poh Tian Gemas N.S.D.K.","tradition":"buddhist","country_code":"my"}},{"type":"Feature","geometry":{"type":"Point","coordinates":[116.4302047,6.3526626]},"properties":{"name":"Tapikung Cina Kota Belud","tradition":"buddhist","country_code":"my"}},{"type":"Feature","geometry":{"type":"Point","coordinates":[100.550252,5.3720351]},"properties":{"name":"居林德教会紫翰閣","tradition":"buddhist","country_code":"my"}},{"type":"Feature","geometry":{"type":"Point","coordinates":[100.267048,5.4166327]},"properties":{"name":"Buddhist Light Vihara (Buddhist Centre)","tradition":"buddhist","country_code":"my"}},{"type":"Feature","geometry":{"type":"Point","coordinates":[100.6730478,6.1360848]},"properties":{"name":"Wat Thepcumnum Naka","tradition":"buddhist","denomination":"theravada","country_code":"my"}},{"type":"Feature","geometry":{"type":"Point","coordinates":[100.6832189,6.1182787]},"properties":{"name":"Wat Changdeng","tradition":"buddhist","denomination":"theravada","country_code":"my"}},{"type":"Feature","geometry":{"type":"Point","coordinates":[100.6848974,6.0845031]},"properties":{"name":"Wat Lamdin","tradition":"buddhist","denomination":"theravada","country_code":"my"}},{"type":"Feature","geometry":{"type":"Point","coordinates":[102.8223724,2.5023026]},"properties":{"name":"慈光亭","tradition":"buddhist","country_code":"my"}},{"type":"Feature","geometry":{"type":"Point","coordinates":[101.8469473,2.9487153]},"properties":{"name":"See Ya Kung Semenyih","tradition":"buddhist","country_code":"my"}},{"type":"Feature","geometry":{"type":"Point","coordinates":[101.1534669,4.3131039]},"properties":{"name":"Kampar Chinese Temple","name:en":"Kampar Chinese Temple","tradition":"buddhist","country_code":"my","phone":"+60-54666916"}},{"type":"Feature","geometry":{"type":"Point","coordinates":[103.3085763,3.8207806]},"properties":{"name":"Tokong Kiew Tian Kong","tradition":"buddhist","country_code":"my"}},{"type":"Feature","geometry":{"type":"Point","coordinates":[103.31597,3.8144695]},"properties":{"name":"Thean Hou Temple","tradition":"buddhist","country_code":"my"}},{"type":"Feature","geometry":{"type":"Point","coordinates":[103.3159607,3.8155172]},"properties":{"name":"Toh Guan Tien Temple","tradition":"buddhist","country_code":"my"}},{"type":"Feature","geometry":{"type":"Point","coordinates":[103.3097322,3.8235427]},"properties":{"name":"Kuil Wan Fo Tien","name:en":"Wan Fo Tien Temple","tradition":"buddhist","country_code":"my"}},{"type":"Feature","geometry":{"type":"Point","coordinates":[103.3149338,3.8094283]},"properties":{"name":"Tokong Kong Hock","tradition":"buddhist","country_code":"my"}},{"type":"Feature","geometry":{"type":"Point","coordinates":[101.4914068,2.8689832]},"properties":{"name":"Fo Guang Shan Dong Zen Temple","name:en":"Fo Guang Shan Dong Zen Temple","tradition":"buddhist","addr:street":"Jalan Sungai Buaya","addr:housenumber":"PT2297","addr:city":"Jenjarom","addr:postcode":"42600","country_code":"my","phone":"+603-3191 1533","website":"https://www.fgs.org.my/"}},{"type":"Feature","geometry":{"type":"Point","coordinates":[100.5700542,4.2203193]},"properties":{"name":"Tokong Fu Lin Kong","name:en":"Fu Lin Kong Temple","tradition":"buddhist","addr:city":"Pulau Pangkor","addr:postcode":"32300","country_code":"my"}},{"type":"Feature","geometry":{"type":"Point","coordinates":[103.3361307,3.8342566]},"properties":{"name":"地王阁","tradition":"buddhist","country_code":"my"}},{"type":"Feature","geometry":{"type":"Point","coordinates":[100.3616551,6.1332617]},"properties":{"name":"Tow Boo Keong","tradition":"buddhist","country_code":"my"}},{"type":"Feature","geometry":{"type":"Point","coordinates":[103.6598655,1.5372179]},"properties":{"name":"Skudai TianHouGong","name:en":"Skudai TianHouGong","tradition":"buddhist","country_code":"my"}},{"type":"Feature","geometry":{"type":"Point","coordinates":[101.0504618,4.283026]},"properties":{"name":"Guan Yin Dian Temple","tradition":"buddhist","addr:street":"Jalan Ayer Hitam Labu","addr:city":"Tanjung Tualang","addr:postcode":"31800","country_code":"my"}},{"type":"Feature","geometry":{"type":"Point","coordinates":[101.7608348,3.1507397]},"properties":{"name":"Ampang Mituoyan Temple","name:en":"Ampang Mituoyan Temple","tradition":"buddhist","country_code":"my"}},{"type":"Feature","geometry":{"type":"Point","coordinates":[102.8236242,2.504243]},"properties":{"name":"慈善宫","tradition":"buddhist","country_code":"my"}},{"type":"Feature","geometry":{"type":"Point","coordinates":[102.8254955,2.5017562]},"properties":{"name":"飞龙亭","tradition":"buddhist","country_code":"my"}},{"type":"Feature","geometry":{"type":"Point","coordinates":[101.6629473,3.2081509]},"properties":{"name":"Jinjang 3 Temples","name:en":"Jinjang 3 Temples","tradition":"buddhist","addr:city":"Kuala Lumpur","addr:postcode":"52000","country_code":"my"}},{"type":"Feature","geometry":{"type":"Point","coordinates":[100.4583418,5.3684384]},"properties":{"name":"天德堂","tradition":"buddhist","country_code":"my"}},{"type":"Feature","geometry":{"type":"Point","coordinates":[101.6781591,3.1038082]},"properties":{"name":"Tham Wah Wan Temple","name:en":"Tham Wah Wan Temple","tradition":"buddhist","addr:street":"Jalan Klang Lama","addr:housenumber":"196","country_code":"my"}},{"type":"Feature","geometry":{"type":"Point","coordinates":[100.3801246,6.0309401]},"properties":{"name":"Kuan Yim Teng","tradition":"buddhist","country_code":"my"}},{"type":"Feature","geometry":{"type":"Point","coordinates":[101.4126411,2.8375228]},"properties":{"name":"蛤山老王殿","tradition":"buddhist","country_code":"my"}},{"type":"Feature","geometry":{"type":"Point","coordinates":[101.4172832,2.8283629]},"properties":{"name":"天宝宫","tradition":"buddhist","country_code":"my"}},{"type":"Feature","geometry":{"type":"Point","coordinates":[100.4576648,5.3626684]},"properties":{"name":"Pu Ji Fo Tang 普济佛堂","tradition":"buddhist","addr:street":"Jalan Manggis Indah","addr:housenumber":"2045","addr:city":"Bukit Mertajam","addr:postcode":"14000","country_code":"my"}},{"type":"Feature","geometry":{"type":"Point","coordinates":[100.4519511,5.3641148]},"properties":{"name":"De Ji Ge 德济阁","tradition":"buddhist","country_code":"my"}},{"type":"Feature","geometry":{"type":"Point","coordinates":[100.5492185,5.3837773]},"properties":{"name":"居林吉南斗母宫","tradition":"buddhist","addr:housenumber":"居林吉南斗母宫","country_code":"my"}},{"type":"Feature","geometry":{"type":"Point","coordinates":[101.9765856,2.5467417]},"properties":{"name":"龙兴山观音庙","name:en":"Guan Yin Temple","tradition":"buddhist","country_code":"my"}},{"type":"Feature","geometry":{"type":"Point","coordinates":[100.490412,5.3368799]},"properties":{"name":"Long Chuan Tan","tradition":"buddhist","addr:street":"Lorong Sejahtera 17","addr:housenumber":"2","country_code":"my","website":"https://onetempleoneroad.com/malaysia/20-penang/735-long-chuan-tan"}},{"type":"Feature","geometry":{"type":"Point","coordinates":[101.3911133,4.4889128]},"properties":{"name":"Sam Poh Temple","tradition":"buddhist","country_code":"my"}},{"type":"Feature","geometry":{"type":"Point","coordinates":[118.0617604,5.8371633]},"properties":{"name":"天法威靈廟","name:en":"Ten Fatt Vui Lin Temple","tradition":"buddhist","country_code":"my"}},{"type":"Feature","geometry":{"type":"Point","coordinates":[101.6775036,3.1110863]},"properties":{"name":"Nanyang Thong Hong Siang Tng","name:en":"Nanyang Thong Hong Siang Tng","tradition":"buddhist","country_code":"my"}},{"type":"Feature","geometry":{"type":"Point","coordinates":[101.6971123,3.1169433]},"properties":{"name":"Chin Foot Sze Temple","name:en":"Chin Foot Sze Temple","tradition":"buddhist","country_code":"my"}},{"type":"Feature","geometry":{"type":"Point","coordinates":[100.498247,5.3427138]},"properties":{"name":"德长堂","tradition":"buddhist","addr:housenumber":"696","country_code":"my"}},{"type":"Feature","geometry":{"type":"Point","coordinates":[101.6896243,3.1275399]},"properties":{"name":"Yuen Thong Sze Temple","tradition":"buddhist","addr:street":"Jalan Syed Putra","addr:housenumber":"Lot 539","addr:city":"Kuala Lumpur","addr:postcode":"50460","country_code":"my","phone":"+60322744682"}},{"type":"Feature","geometry":{"type":"Point","coordinates":[114.0226722,4.4801345]},"properties":{"name":"Guan Yin Tang Temple","tradition":"buddhist","addr:street":"Jalan Tudan","addr:city":"Miri","addr:postcode":"98100","country_code":"my"}},{"type":"Feature","geometry":{"type":"Point","coordinates":[102.6603467,2.0472186]},"properties":{"name":"Temple","tradition":"buddhist","country_code":"my"}},{"type":"Feature","geometry":{"type":"Point","coordinates":[101.6017807,2.9309367]},"properties":{"name":"Sau Seng Lum Puchong Exhibition Centre","name:en":"Sau Seng Lum Puchong Exhibition Centre","tradition":"buddhist","country_code":"my","website":"https://www.sausenglum.org/c_exhibition.php"}},{"type":"Feature","geometry":{"type":"Point","coordinates":[103.3201841,2.0387507]},"properties":{"name":"Long Du Gong Chinese Temple","tradition":"buddhist","country_code":"my"}},{"type":"Feature","geometry":{"type":"Point","coordinates":[103.3198599,2.0349281]},"properties":{"name":"Chong Fu temple","tradition":"buddhist","country_code":"my"}},{"type":"Feature","geometry":{"type":"Point","coordinates":[103.3200365,2.0255723]},"properties":{"name":"德教会","tradition":"buddhist","country_code":"my"}},{"type":"Feature","geometry":{"type":"Point","coordinates":[100.7828115,5.703013]},"properties":{"name":"Wat Kampung Tas","tradition":"buddhist","country_code":"my"}},{"type":"Feature","geometry":{"type":"Point","coordinates":[100.4223734,6.2779764]},"properties":{"name":"Erawan Temple","tradition":"buddhist","country_code":"my"}},{"type":"Feature","geometry":{"type":"Point","coordinates":[101.4261598,3.0321246]},"properties":{"name":"Nichiren Shoshu Malaysia Propagation Centre","name:en":"Nichiren Shoshu Malaysia Propagation Centre","tradition":"buddhist","denomination":"nichiren_shoshu","addr:street":"Jalan Hilir","addr:city":"Klang","country_code":"my"}},{"type":"Feature","geometry":{"type":"Point","coordinates":[100.3195846,5.4262084]},"properties":{"name":"The Buddhist Triple Wisdom Hall","tradition":"buddhist","country_code":"my"}},{"type":"Feature","geometry":{"type":"Point","coordinates":[101.9477093,2.6250315]},"properties":{"name":"Rumah Berhala Kuan Eng Meo Kuala Sawah","tradition":"buddhist","country_code":"my"}},{"type":"Feature","geometry":{"type":"Point","coordinates":[101.1222768,4.5632711]},"properties":{"name":"Poon Koo Khoong","name:en":"Poon Koo Khoong","tradition":"buddhist","country_code":"my"}},{"type":"Feature","geometry":{"type":"Point","coordinates":[100.7441336,4.8531748]},"properties":{"name":"Ho Hsien-ku Temple","tradition":"buddhist","country_code":"my"}},{"type":"Feature","geometry":{"type":"Point","coordinates":[115.2271176,5.2723052]},"properties":{"name":"清水祖师","tradition":"buddhist","country_code":"my"}},{"type":"Feature","geometry":{"type":"Point","coordinates":[102.3853953,2.802509]},"properties":{"name":"Persatuan Buddhist Bahau","tradition":"buddhist","country_code":"my"}},{"type":"Feature","geometry":{"type":"Point","coordinates":[102.104782,2.3419841]},"properties":{"name":"Persatuan Buddhist Malaysia Cawangan Kecil Masjid Tanah","name:en":"Malaysian Buddhist Association Masjid Tanah Branch","tradition":"buddhist","addr:housenumber":"SU 1570-1572","country_code":"my"}},{"type":"Feature","geometry":{"type":"Point","coordinates":[101.1382809,4.5889575]},"properties":{"name":"定慧居","tradition":"buddhist","country_code":"my"}},{"type":"Feature","geometry":{"type":"Point","coordinates":[101.1276477,4.6390494]},"properties":{"name":"圣佛古庙","tradition":"buddhist","addr:street":"Lorong Bercham 11","addr:housenumber":"350","country_code":"my"}},{"type":"Feature","geometry":{"type":"Point","coordinates":[100.6104581,6.0446712]},"properties":{"name":"Wat Sunthornpracharam","tradition":"buddhist","denomination":"theravada","country_code":"my"}},{"type":"Feature","geometry":{"type":"Point","coordinates":[100.6118273,6.0702485]},"properties":{"name":"Wat Na Nai","tradition":"buddhist","denomination":"theravada","country_code":"my"}},{"type":"Feature","geometry":{"type":"Point","coordinates":[103.328331,2.0303838]},"properties":{"name":"Hong Xian Gong Temple","tradition":"buddhist","country_code":"my"}},{"type":"Feature","geometry":{"type":"Point","coordinates":[101.6257269,2.999548]},"properties":{"name":"金英祖师发院","name:en":"Kim Ying Temple Management Society","tradition":"buddhist","country_code":"my"}},{"type":"Feature","geometry":{"type":"Point","coordinates":[101.6234213,2.9931137]},"properties":{"name":"蒲种十四碑观音堂","tradition":"buddhist","addr:street":"Jalan Bakau","addr:housenumber":"75","country_code":"my"}},{"type":"Feature","geometry":{"type":"Point","coordinates":[101.1376634,4.5923758]},"properties":{"name":"观音紫明庵","tradition":"buddhist","country_code":"my"}},{"type":"Feature","geometry":{"type":"Point","coordinates":[103.3246645,2.0305508]},"properties":{"name":"真空教道堂","tradition":"buddhist","country_code":"my"}},{"type":"Feature","geometry":{"type":"Point","coordinates":[103.3240854,2.0305897]},"properties":{"name":"善安堂","tradition":"buddhist","country_code":"my"}},{"type":"Feature","geometry":{"type":"Point","coordinates":[101.1416033,4.5895903]},"properties":{"name":"报恩寺","tradition":"buddhist","country_code":"my"}},{"type":"Feature","geometry":{"type":"Point","coordinates":[101.1382602,4.6099378]},"properties":{"name":"打扪何仙姑庙","tradition":"buddhist","country_code":"my"}},{"type":"Feature","geometry":{"type":"Point","coordinates":[101.1399522,4.5986988]},"properties":{"name":"打扪八仙坛","tradition":"buddhist","addr:housenumber":"Lot 67965","country_code":"my"}},{"type":"Feature","geometry":{"type":"Point","coordinates":[101.141863,4.595163]},"properties":{"name":"打扪大圣庙","tradition":"buddhist","country_code":"my"}},{"type":"Feature","geometry":{"type":"Point","coordinates":[101.6199819,3.0888909]},"properties":{"name":"灵应殿","tradition":"buddhist","addr:street":"Jalan SS 9A/5","addr:housenumber":"19","addr:city":"Petaling Jaya","addr:postcode":"47300","addr:country":"MY","country_code":"my"}},{"type":"Feature","geometry":{"type":"Point","coordinates":[101.496699,2.8722475]},"properties":{"name":"Ban Siew Keng Temple","tradition":"buddhist","country_code":"my"}},{"type":"Feature","geometry":{"type":"Point","coordinates":[101.0548782,4.6346894]},"properties":{"name":"哪吒清城庙","tradition":"buddhist","country_code":"my"}},{"type":"Feature","geometry":{"type":"Point","coordinates":[103.2485909,3.8563193]},"properties":{"name":"Lao Zi Temple","tradition":"buddhist","country_code":"my"}},{"type":"Feature","geometry":{"type":"Point","coordinates":[101.139585,4.5902471]},"properties":{"name":"Persatuan Penganut Buddha Dewa Jen Chen","tradition":"buddhist","country_code":"my"}},{"type":"Feature","geometry":{"type":"Point","coordinates":[101.1149356,4.5673788]},"properties":{"name":"南海观音","tradition":"buddhist","country_code":"my"}},{"type":"Feature","geometry":{"type":"Point","coordinates":[101.0575102,4.6332067]},"properties":{"name":"圣佛庙","tradition":"buddhist","addr:street":"Jalan Tokong","addr:housenumber":"670","addr:city":"Ipoh","addr:postcode":"30020","addr:country":"MY","country_code":"my"}},{"type":"Feature","geometry":{"type":"Point","coordinates":[101.1147944,4.5655328]},"properties":{"name":"Nam Thean Tong Temple 南天洞","name:en":"Nam Thean Tong Temple","tradition":"buddhist","country_code":"my"}},{"type":"Feature","geometry":{"type":"Point","coordinates":[102.2574579,2.205297]},"properties":{"name":"香林觉苑","tradition":"buddhist","country_code":"my"}},{"type":"Feature","geometry":{"type":"Point","coordinates":[101.1599396,4.5824924]},"properties":{"name":"白云寺禅修林","tradition":"buddhist","country_code":"my"}},{"type":"Feature","geometry":{"type":"Point","coordinates":[100.6144636,5.839996]},"properties":{"name":"Wat Kalai","tradition":"buddhist","country_code":"my"}},{"type":"Feature","geometry":{"type":"Point","coordinates":[101.6994716,3.1657066]},"properties":{"name":"Hoeh Beng Buddhist Temple","name:en":"Hoeh Beng Buddhist Temple","tradition":"buddhist","addr:street":"Jalan Raja Bot","addr:housenumber":"18A","addr:city":"Kuala Lumpur","addr:postcode":"50300","country_code":"my","website":"https://www.hoehbeng.org/"}},{"type":"Feature","geometry":{"type":"Point","coordinates":[101.7653525,3.1391912]},"properties":{"name":"Sam Poh Thong Ampang","name:en":"Sam Poh Thong (Ampang) Buddhist Temple","tradition":"buddhist","addr:street":"Jalan 7","addr:housenumber":"396","addr:city":"Ampang","addr:postcode":"68000","addr:country":"MY","country_code":"my","phone":"+60-129619518","website":"https://www.facebook.com/sampohthong/"}},{"type":"Feature","geometry":{"type":"Point","coordinates":[101.7663224,3.1357928]},"properties":{"name":"伏英馆","tradition":"buddhist","addr:street":"Jalan Merdeka","addr:housenumber":"386-A","addr:city":"Ampang","addr:postcode":"68000","addr:country":"MY","country_code":"my"}},{"type":"Feature","geometry":{"type":"Point","coordinates":[100.6885783,4.1633091]},"properties":{"name":"Tua Pek Kong Temple","tradition":"buddhist","country_code":"my"}},{"type":"Feature","geometry":{"type":"Point","coordinates":[101.0797762,4.570977]},"properties":{"name":"Wai Sun Society For Basic Buddhism Perak","tradition":"buddhist","country_code":"my"}},{"type":"Feature","geometry":{"type":"Point","coordinates":[101.6604626,3.20241]},"properties":{"name":"Nine Emperors Temple","name:en":"Nine Emperors Temple","tradition":"buddhist","addr:street":"Jalan 21/32","addr:housenumber":"2","addr:city":"Kuala Lumpur","addr:postcode":"52000","country_code":"my","phone":"+60-127636378","website":"https://www.facebook.com/p/%E5%90%89%E9%9A%86%E5%9D%A1%E5%A2%9E%E6%B1%9F%E5%8D%97%E5%8C%BA%E5%8C%97%E5%A4%A9%E5%AE%AB%E4%B9%9D%E7%9A%87%E5%A4%A7%E5%B8%9D-100064412242971/"}},{"type":"Feature","geometry":{"type":"Point","coordinates":[101.6808961,3.1808749]},"properties":{"name":"Guan Yin Gu Miao Buddhist Temple","name:en":"Guan Yin Gu Miao Buddhist Temple","tradition":"buddhist","country_code":"my"}},{"type":"Feature","geometry":{"type":"Point","coordinates":[101.0956426,4.5833675]},"properties":{"name":"Tai Pee Sim Monastery","name:en":"Tai Pee Sim Monastery","tradition":"buddhist","country_code":"my"}},{"type":"Feature","geometry":{"type":"Point","coordinates":[101.6696319,3.2426902]},"properties":{"name":"士拉央佛教会","tradition":"buddhist","country_code":"my"}},{"type":"Feature","geometry":{"type":"Point","coordinates":[101.6633079,2.8913701]},"properties":{"name":"Pusat Buddhis Dhammaduta Malaysia","tradition":"buddhist","addr:street":"Precint 20","addr:city":"Putrajaya","addr:postcode":"63000","country_code":"my","website":"https://bmsm.org.my/"}},{"type":"Feature","geometry":{"type":"Point","coordinates":[101.6723555,3.1837441]},"properties":{"name":"Nan Yang Gong Temple Segambut","name:en":"Nan Yang Gong Temple Segambut","tradition":"buddhist","addr:street":"Jalan Segambut","addr:city":"Kuala Lumpur","addr:postcode":"51200","country_code":"my"}},{"type":"Feature","geometry":{"type":"Point","coordinates":[101.1312103,4.6147965]},"properties":{"name":"Wat Puthanimittam","tradition":"buddhist","country_code":"my"}},{"type":"Feature","geometry":{"type":"Point","coordinates":[101.134885,4.6282327]},"properties":{"name":"Sukhavana Meditation Monastery","tradition":"buddhist","country_code":"my"}},{"type":"Feature","geometry":{"type":"Point","coordinates":[101.1342275,4.627424]},"properties":{"name":"Tokong Huat Tian Keong","tradition":"buddhist","country_code":"my"}},{"type":"Feature","geometry":{"type":"Point","coordinates":[101.084711,4.5758602]},"properties":{"name":"Perak Chi Pee Seah","tradition":"buddhist","country_code":"my"}},{"type":"Feature","geometry":{"type":"Point","coordinates":[112.0936215,2.8981694]},"properties":{"name":"Mukah Buddhist Temple","tradition":"buddhist","country_code":"my"}},{"type":"Feature","geometry":{"type":"Point","coordinates":[100.4856045,5.3055302]},"properties":{"name":"灵师坛","tradition":"buddhist","country_code":"my"}},{"type":"Feature","geometry":{"type":"Point","coordinates":[101.0871805,4.5794381]},"properties":{"name":"妈祖阁","tradition":"buddhist","addr:street":"Jalan Queen","addr:housenumber":"1621","country_code":"my"}},{"type":"Feature","geometry":{"type":"Point","coordinates":[101.0938002,4.5754183]},"properties":{"name":"妙心堂","tradition":"buddhist","addr:street":"Jalan Pasir Pinji 20","addr:housenumber":"503","addr:city":"Ipoh","addr:postcode":"31650","addr:country":"MY","country_code":"my"}},{"type":"Feature","geometry":{"type":"Point","coordinates":[101.4068439,3.0996469]},"properties":{"name":"Ti-Ratana Vihara","tradition":"buddhist","denomination":"theravada","addr:street":"Persiaran Aman Perdana 2","addr:housenumber":"Lot 57313","addr:city":"Klang","addr:postcode":"41050","country_code":"my","website":"https://www.klang.ti-ratana.org"}},{"type":"Feature","geometry":{"type":"Point","coordinates":[101.7885756,2.989188]},"properties":{"name":"Persatuan Dhammaduta Malaysia (Cawangan Kajang)","name:en":"Buddhist Missionary Society Malaysia (Kajang Branch)","tradition":"buddhist","denomination":"theravada","addr:street":"Jalan Reko","addr:housenumber":"4","addr:city":"Kajang","addr:postcode":"43000","country_code":"my","website":"https://bmsm.org.my/"}},{"type":"Feature","geometry":{"type":"Point","coordinates":[101.4769269,3.0767842]},"properties":{"name":"BMSM Samadhi Vihara","tradition":"buddhist","denomination":"theravada","addr:street":"Persiaran Serai Wangi","addr:housenumber":"1B","addr:city":"Shah Alam","addr:postcode":"40170","country_code":"my","website":"https://bmsm.org.my/"}},{"type":"Feature","geometry":{"type":"Point","coordinates":[101.4769066,3.0774044]},"properties":{"name":"Bodhi Park Shah Alam","tradition":"buddhist","addr:street":"Persiaran Serai Wangi","addr:housenumber":"1A","addr:city":"Shah Alam","addr:postcode":"40170","country_code":"my","website":"https://bodhipark.wordpress.com/about/"}},{"type":"Feature","geometry":{"type":"Point","coordinates":[101.7431046,2.891683]},"properties":{"name":"BMSM Dhammavijaya Meditation Center","tradition":"buddhist","denomination":"theravada","addr:street":"Jalan Besar","addr:housenumber":"Lot 850","addr:city":"Kg. Sungai Buah Luar","addr:postcode":"43800","country_code":"my","website":"https://bmsm.org.my/"}},{"type":"Feature","geometry":{"type":"Point","coordinates":[102.2403779,2.2022786]},"properties":{"name":"Seck Kia Eenh Buddhist Temple","tradition":"buddhist","addr:street":"Jalan Gajah Berang","addr:housenumber":"57","addr:city":"Melaka","addr:postcode":"75200","country_code":"my","website":"https://ske.my/"}},{"type":"Feature","geometry":{"type":"Point","coordinates":[102.2015792,2.2788419]},"properties":{"name":"Brahmavihara Monastery","tradition":"buddhist","denomination":"theravada","addr:street":"Jalan Wakaf","addr:housenumber":"Lot 491","addr:city":"Tanjong Minyak, Melaka","addr:postcode":"76450","country_code":"my","website":"http://brahmavihara.my/"}},{"type":"Feature","geometry":{"type":"Point","coordinates":[101.7722906,2.9873699]},"properties":{"name":"Pertubuhan Budhis Manju Suddhi","tradition":"buddhist","country_code":"my"}},{"type":"Feature","geometry":{"type":"Point","coordinates":[103.1324311,5.3302083]},"properties":{"name":"Tokong Tian Hou Gong","name:en":"Tian Hou Temple","tradition":"buddhist","country_code":"my"}},{"type":"Feature","geometry":{"type":"Point","coordinates":[101.4263129,3.027648]},"properties":{"name":"Persatuan Penganut Agama Buddha Fo Guang Malaysia","tradition":"buddhist","denomination":"mahayana","country_code":"my"}},{"type":"Feature","geometry":{"type":"Point","coordinates":[101.7184997,3.118178]},"properties":{"name":"Bodhi","tradition":"buddhist","country_code":"my"}},{"type":"Feature","geometry":{"type":"Point","coordinates":[102.5946012,2.1758196]},"properties":{"name":"玄帝庙","tradition":"buddhist","country_code":"my"}},{"type":"Feature","geometry":{"type":"Point","coordinates":[100.6108559,6.0552723]},"properties":{"name":"Wat Phothichetiyaram","tradition":"buddhist","denomination":"theravada","country_code":"my"}},{"type":"Feature","geometry":{"type":"Point","coordinates":[100.6171457,6.0154899]},"properties":{"name":"Wat Visutthipradittharam","tradition":"buddhist","denomination":"theravada","country_code":"my"}},{"type":"Feature","geometry":{"type":"Point","coordinates":[100.6110824,6.111258]},"properties":{"name":"Wat Lampam","tradition":"buddhist","denomination":"theravada","country_code":"my"}},{"type":"Feature","geometry":{"type":"Point","coordinates":[101.0831934,4.6305971]},"properties":{"name":"保宫亭","tradition":"buddhist","country_code":"my"}},{"type":"Feature","geometry":{"type":"Point","coordinates":[100.4631324,5.3677281]},"properties":{"name":"Kuan Yin Teng","name:en":"Kuan Yin Teng","tradition":"buddhist","country_code":"my"}},{"type":"Feature","geometry":{"type":"Point","coordinates":[101.1235231,4.5300783]},"properties":{"name":"广圣岩","tradition":"buddhist","country_code":"my"}},{"type":"Feature","geometry":{"type":"Point","coordinates":[101.4161246,3.0076899]},"properties":{"name":"Poh Teh Lim Temple","tradition":"buddhist","country_code":"my"}},{"type":"Feature","geometry":{"type":"Point","coordinates":[101.4178976,3.0123917]},"properties":{"name":"Kuan Tien Keng","tradition":"buddhist","country_code":"my"}},{"type":"Feature","geometry":{"type":"Point","coordinates":[100.3161143,5.4257565]},"properties":{"name":"Wat Buppharam","name:en":"Buppharam Buddhist Temple","tradition":"buddhist","country_code":"my"}},{"type":"Feature","geometry":{"type":"Point","coordinates":[103.61939,2.6460164]},"properties":{"name":"观音宫","tradition":"buddhist","country_code":"my"}},{"type":"Feature","geometry":{"type":"Point","coordinates":[100.7293712,4.8582551]},"properties":{"name":"Bodi Langka Ram Buddhist Temple","tradition":"buddhist","country_code":"my"}},{"type":"Feature","geometry":{"type":"Point","coordinates":[101.7036371,3.1882112]},"properties":{"name":"Guan Ying Ting","name:en":"Guan Ying Ting","tradition":"buddhist","addr:street":"Jalan Pahang","addr:housenumber":"43","addr:city":"Kuala Lumpur","addr:postcode":"53000","country_code":"my","phone":"+60186679895"}},{"type":"Feature","geometry":{"type":"Point","coordinates":[101.7062418,3.0292515]},"properties":{"name":"法缘圣寺","tradition":"buddhist","country_code":"my"}},{"type":"Feature","geometry":{"type":"Point","coordinates":[101.7318441,3.0131806]},"properties":{"name":"Ti-Ratana Heights","name:en":"Ti-Ratana Heights","tradition":"buddhist","addr:street":"Jalan Ti-Ratana","addr:housenumber":"PT8604","addr:city":"Seri Kembangan","addr:postcode":"43300","country_code":"my"}},{"type":"Feature","geometry":{"type":"Point","coordinates":[101.7319138,3.0130534]},"properties":{"name":"Ti-Ratana Heights Bodhi Tree Shrine","tradition":"buddhist","country_code":"my"}},{"type":"Feature","geometry":{"type":"Point","coordinates":[101.5404511,3.127563]},"properties":{"name":"梳邦新村活佛宫","tradition":"buddhist","country_code":"my"}},{"type":"Feature","geometry":{"type":"Point","coordinates":[101.7004265,3.0292886]},"properties":{"name":"Persatuan Penyokong-Penyokong Rumah Berhala Foot Ya","tradition":"buddhist","country_code":"my"}},{"type":"Feature","geometry":{"type":"Point","coordinates":[101.6752819,3.1984518]},"properties":{"name":"Chinese Temple","name:en":"Chinese Temple","tradition":"buddhist","addr:street":"Jalan Padang Rengas","addr:housenumber":"Lot 34536","addr:city":"Kuala Lumpur","addr:postcode":"51200","country_code":"my"}},{"type":"Feature","geometry":{"type":"Point","coordinates":[101.6752677,2.9978296]},"properties":{"name":"Jin An Thai Amulet Enterprise","tradition":"buddhist","denomination":"thailand_buddha","addr:street":"Jalan Equine 10A","addr:housenumber":"1-2","addr:city":"Seri Kembangan","addr:postcode":"43300","country_code":"my"}},{"type":"Feature","geometry":{"type":"Point","coordinates":[101.8137618,2.6002791]},"properties":{"name":"南德寺","tradition":"buddhist","country_code":"my"}},{"type":"Feature","geometry":{"type":"Point","coordinates":[101.5692418,3.193965]},"properties":{"name":"观音庙","tradition":"buddhist","country_code":"my"}},{"type":"Feature","geometry":{"type":"Point","coordinates":[100.3161814,5.4248453]},"properties":{"name":"洪福寺","name:en":"Hong Hock See","tradition":"buddhist","country_code":"my"}},{"type":"Feature","geometry":{"type":"Point","coordinates":[101.8263296,3.3530012]},"properties":{"name":"文武圣帝庙","tradition":"buddhist","country_code":"my"}},{"type":"Feature","geometry":{"type":"Point","coordinates":[115.2383044,5.3087566]},"properties":{"name":"Persatuan Buddhist Labuan","tradition":"buddhist","country_code":"my"}},{"type":"Feature","geometry":{"type":"Point","coordinates":[101.741606,3.1036453]},"properties":{"name":"Persatuan Penganut Dewa Wah Put","tradition":"buddhist","country_code":"my"}},{"type":"Feature","geometry":{"type":"Point","coordinates":[116.1160798,5.9518829]},"properties":{"name":"Mettiyarama","tradition":"buddhist","addr:street":"Jalan Sukang Mabpai","addr:city":"Kota Kinabalu","addr:country":"MY","country_code":"my"}},{"type":"Feature","geometry":{"type":"Point","coordinates":[101.7378872,3.0971354]},"properties":{"name":"Persatuan Penganut Buddha Pu Mern","name:en":"Pu Mern Buddhist Association","tradition":"buddhist","addr:street":"Jalan 1/103A","addr:housenumber":"10","country_code":"my"}},{"type":"Feature","geometry":{"type":"Point","coordinates":[101.7374391,3.0965061]},"properties":{"name":"Persatuan Semadi, Kuala Lumpur dan Selangor","name:en":"Great Wisdom Meditation Association, Kuala Lumpur and Selangor","tradition":"buddhist","addr:street":"Jalan Siput Sedut","addr:housenumber":"3","country_code":"my"}},{"type":"Feature","geometry":{"type":"Point","coordinates":[101.7374798,3.0962804]},"properties":{"name":"妙缘莲社","tradition":"buddhist","country_code":"my"}},{"type":"Feature","geometry":{"type":"Point","coordinates":[101.6593757,3.2242253]},"properties":{"name":"Tokong Poo Meng See","tradition":"buddhist","country_code":"my"}},{"type":"Feature","geometry":{"type":"Point","coordinates":[101.700901,3.165715]},"properties":{"name":"Kwong Hock Tyng","tradition":"buddhist","addr:street":"Jalan Raja Bot","country_code":"my"}},{"type":"Feature","geometry":{"type":"Point","coordinates":[101.6555585,3.2129494]},"properties":{"name":"Temple of the Eighteen Arhats","name:en":"Temple of the Eighteen Arhats","tradition":"buddhist","addr:street":"Jalan Benteng Barat","addr:housenumber":"1","country_code":"my"}},{"type":"Feature","geometry":{"type":"Point","coordinates":[101.6606522,3.2117814]},"properties":{"name":"Golden Mountain Temple","name:en":"Golden Mountain Temple","tradition":"buddhist","country_code":"my"}},{"type":"Feature","geometry":{"type":"Point","coordinates":[101.6637747,3.2052945]},"properties":{"name":"Tong Chin Thong Jinjang Selatan","name:en":"Tong Chin Thong South Jinjang","tradition":"buddhist","addr:street":"Jalan Jambu Berasa","addr:housenumber":"9419","addr:city":"Kuala Lumpur","addr:postcode":"52000","addr:country":"MY","country_code":"my"}},{"type":"Feature","geometry":{"type":"Point","coordinates":[101.6636308,3.2056956]},"properties":{"name":"吉隆坡增江南区福星庙","tradition":"buddhist","country_code":"my","website":"https://www.facebook.com/watch/?v=889757999896455"}},{"type":"Feature","geometry":{"type":"Point","coordinates":[101.5738602,3.3233716]},"properties":{"name":"Tokong Kam Yin Teng","tradition":"buddhist","country_code":"my"}},{"type":"Feature","geometry":{"type":"Point","coordinates":[101.5736756,3.3228378]},"properties":{"name":"万挠活佛坛","tradition":"buddhist","country_code":"my"}},{"type":"Feature","geometry":{"type":"Point","coordinates":[101.404223,3.0078823]},"properties":{"name":"清凉亭","tradition":"buddhist","country_code":"my"}},{"type":"Feature","geometry":{"type":"Point","coordinates":[101.6988754,3.0810028]},"properties":{"name":"Chee Wan San Temple","name:en":"Chee Wan San Temple","tradition":"buddhist","country_code":"my"}},{"type":"Feature","geometry":{"type":"Point","coordinates":[101.7706761,3.0733445]},"properties":{"name":"观音庙","tradition":"buddhist","country_code":"my"}},{"type":"Feature","geometry":{"type":"Point","coordinates":[101.7993084,2.9848301]},"properties":{"name":"Persatuan Penganut Agama Palpung Choeying","tradition":"buddhist","denomination":"tibetan","addr:street":"Jalan Bukit Mewah","addr:housenumber":"Lot 7426","addr:city":"Kajang","addr:postcode":"43000","country_code":"my"}},{"type":"Feature","geometry":{"type":"Point","coordinates":[100.303636,5.3943643]},"properties":{"name":"Wat Pinbang-Onn","tradition":"buddhist","country_code":"my"}},{"type":"Feature","geometry":{"type":"Point","coordinates":[100.3040788,5.395753]},"properties":{"name":"Malaysian Buddhist Meditation Centre","tradition":"buddhist","addr:housenumber":"355","country_code":"my"}},{"type":"Feature","geometry":{"type":"Point","coordinates":[101.7245008,3.1195161]},"properties":{"name":"仙法宫","tradition":"buddhist","country_code":"my"}},{"type":"Feature","geometry":{"type":"Point","coordinates":[101.7250112,3.1192605]},"properties":{"name":"Persatuan Kebajikan dan Perkhidmatan Amitabha Kuala Lumpur & Selangor","tradition":"buddhist","country_code":"my"}},{"type":"Feature","geometry":{"type":"Point","coordinates":[100.3925416,5.4239113]},"properties":{"name":"北海佛教会","tradition":"buddhist","country_code":"my"}},{"type":"Feature","geometry":{"type":"Point","coordinates":[101.73652,3.1320571]},"properties":{"name":"Nam Poh Tuat Thai Buddhist Temple","tradition":"buddhist","country_code":"my"}},{"type":"Feature","geometry":{"type":"Point","coordinates":[101.768091,3.0366763]},"properties":{"name":"如来佛祖庙","tradition":"buddhist","addr:street":"Jalan Balakong","addr:housenumber":"Lot 3134 - 3136","addr:city":"Cheras","addr:postcode":"43200","country_code":"my"}},{"type":"Feature","geometry":{"type":"Point","coordinates":[102.0106684,3.4193956]},"properties":{"name":"至誠堂","tradition":"buddhist","country_code":"my"}},{"type":"Feature","geometry":{"type":"Point","coordinates":[101.8780087,3.5192914]},"properties":{"name":"Gyenze Chapel","tradition":"buddhist","country_code":"my"}},{"type":"Feature","geometry":{"type":"Point","coordinates":[102.6865222,2.4383193]},"properties":{"name":"云峯宫","tradition":"buddhist","addr:street":"Jalan Padang","addr:city":"Jementah","addr:postcode":"85200","country_code":"my"}},{"type":"Feature","geometry":{"type":"Point","coordinates":[114.0028406,4.4217995]},"properties":{"name":"Pertubuhan Ugama Buddha (1993)","name:en":"Miri Buddhist Society (1993)","tradition":"buddhist","addr:street":"Jalan Chong Poh","addr:housenumber":"1795","addr:city":"Miri","addr:postcode":"98000","country_code":"my","phone":"085-422 562","website":"https://mbsg40.gbs2u.com/"}},{"type":"Feature","geometry":{"type":"Point","coordinates":[113.9989298,4.3283401]},"properties":{"name":"Kuil Buddha Hua Guang Miri","name:en":"Miri Hua Guang Buddhist Temple","tradition":"buddhist","addr:street":"Jalan Tunku Abdul Rahman","addr:housenumber":"649","addr:city":"Miri","addr:postcode":"98000","country_code":"my"}},{"type":"Feature","geometry":{"type":"Point","coordinates":[113.9997704,4.3317496]},"properties":{"name":"Chang De Temple","tradition":"buddhist","addr:street":"Lorong Tunku Abdul Rahman C-4","addr:housenumber":"12217","addr:city":"Miri","addr:postcode":"98000","country_code":"my"}},{"type":"Feature","geometry":{"type":"Point","coordinates":[101.9384289,2.7397717]},"properties":{"name":"Guan Yin Sagely Monastery","tradition":"buddhist","country_code":"my"}},{"type":"Feature","geometry":{"type":"Point","coordinates":[100.7621739,4.8322474]},"properties":{"name":"The Great Incomparable Wish-Fulfilling Stupa","tradition":"buddhist","country_code":"my"}},{"type":"Feature","geometry":{"type":"Point","coordinates":[100.3195454,5.4254611]},"properties":{"name":"Malaysian Buddhist Association","tradition":"buddhist","country_code":"my"}},{"type":"Feature","geometry":{"type":"Point","coordinates":[116.1167313,5.9933004]},"properties":{"name":"Puh Toh Tze","name:en":"Pu Tuo Si Temple","tradition":"buddhist","country_code":"my"}},{"type":"Feature","geometry":{"type":"Point","coordinates":[101.6869466,3.128168]},"properties":{"name":"Buddhist Maha Vihara","tradition":"buddhist","addr:street":"Jalan Berhala","addr:housenumber":"123","addr:city":"Kuala Lumpur","addr:postcode":"50470","country_code":"my","phone":"+603 2274 1141","website":"https://www.buddhistmahavihara.org/"}},{"type":"Feature","geometry":{"type":"Point","coordinates":[117.8920446,4.2496953]},"properties":{"name":"Fo Guang Shan Temple","tradition":"buddhist","country_code":"my"}},{"type":"Feature","geometry":{"type":"Point","coordinates":[115.2424175,5.2451117]},"properties":{"name":"Tin Hau Temple","tradition":"buddhist","country_code":"my"}},{"type":"Feature","geometry":{"type":"Point","coordinates":[101.6514468,3.2116137]},"properties":{"name":"Penganut Dewa Jing Xin Tang","tradition":"buddhist","country_code":"my"}},{"type":"Feature","geometry":{"type":"Point","coordinates":[111.338713,1.7444574]},"properties":{"name":"Persatuan Agama Buddha Saratok","tradition":"buddhist","country_code":"my"}},{"type":"Feature","geometry":{"type":"Point","coordinates":[113.9917123,4.3838048]},"properties":{"name":"Pertubuhan Meditasi Buddha Miri","name:en":"Miri Buddhist Meditation Society","tradition":"buddhist","addr:street":"Canada Hill","addr:housenumber":"899,2523","addr:city":"Miri","addr:postcode":"98000","country_code":"my"}},{"type":"Feature","geometry":{"type":"Point","coordinates":[101.6783709,3.1847283]},"properties":{"name":"捧石宫","tradition":"buddhist","country_code":"my"}},{"type":"Feature","geometry":{"type":"Point","coordinates":[100.3392178,6.3577956]},"properties":{"name":"Wat Boonyaram","tradition":"buddhist","country_code":"my"}},{"type":"Feature","geometry":{"type":"Point","coordinates":[100.4657572,5.3751337]},"properties":{"name":"Wat Chantararam Thai Buddhist Temple","name:en":"Wat Chantararam Thai Buddhist Temple","tradition":"buddhist","addr:street":"Jalan Abdul Kadir","addr:city":"Bukit Mertajam","addr:postcode":"14000","country_code":"my"}},{"type":"Feature","geometry":{"type":"Point","coordinates":[101.7247124,3.130379]},"properties":{"name":"Selangor Malaysian Buddhist Society","name:en":"Selangor Malaysian Buddhist Society","tradition":"buddhist","country_code":"my"}},{"type":"Feature","geometry":{"type":"Point","coordinates":[101.7884495,3.4128035]},"properties":{"name":"Buddha Temple","tradition":"buddhist","country_code":"my"}},{"type":"Feature","geometry":{"type":"Point","coordinates":[102.1627381,6.1610377]},"properties":{"name":"Wat Kok Seya Vanaram","name:en":"Wat Kok Seya Vanaram","tradition":"buddhist","country_code":"my"}},{"type":"Feature","geometry":{"type":"Point","coordinates":[100.6324472,5.6824782]},"properties":{"name":"Wat Samakhiratanaram Bukit Selambau","tradition":"buddhist","country_code":"my"}},{"type":"Feature","geometry":{"type":"Point","coordinates":[100.3848127,5.0760287]},"properties":{"name":"真君大帝啅公古庙","tradition":"buddhist","country_code":"my"}},{"type":"Feature","geometry":{"type":"Point","coordinates":[100.261328,6.5718281]},"properties":{"name":"Wat Siam Kubang Tiga","name:en":"Wat Siam Kubang Tiga","tradition":"buddhist","country_code":"my"}},{"type":"Feature","geometry":{"type":"Point","coordinates":[100.578908,5.9585157]},"properties":{"name":"Wat Thep Suwannaram","name:en":"Wat Thep Suwannaram","tradition":"buddhist","country_code":"my"}},{"type":"Feature","geometry":{"type":"Point","coordinates":[101.099248,4.6444262]},"properties":{"name":"Perak Tong 霹雳洞","tradition":"buddhist","addr:street":"Jalan Kuala Kangsar","addr:city":"Ipoh","addr:postcode":"31400","country_code":"my"}},{"type":"Feature","geometry":{"type":"Point","coordinates":[102.2649991,2.1854327]},"properties":{"name":"Western Lotus Purity Perfect","tradition":"buddhist","addr:street":"Lorong 1","addr:housenumber":"444","addr:postcode":"75050","country_code":"my","phone":"06-2844062","website":"https://www.mybuddhist.net/cms/damafojiao/zuzhidanwei/fotuansimiao/Melaka/simiao/1490.html"}},{"type":"Feature","geometry":{"type":"Point","coordinates":[102.2358361,6.1306084]},"properties":{"name":"Pertubuhan Penganut Buddha Tiaw Imm Sea","tradition":"buddhist","country_code":"my"}},{"type":"Feature","geometry":{"type":"Point","coordinates":[102.0714744,2.9951728]},"properties":{"name":"慈仁堂","tradition":"buddhist","country_code":"my"}},{"type":"Feature","geometry":{"type":"Point","coordinates":[100.5604853,5.0312647]},"properties":{"name":"Aun Sun Seah","tradition":"buddhist","country_code":"my"}},{"type":"Feature","geometry":{"type":"Point","coordinates":[110.3455492,1.5582916]},"properties":{"name":"Hiang Thian Siang Ti Temple","tradition":"buddhist","country_code":"my"}},{"type":"Feature","geometry":{"type":"Point","coordinates":[100.3217423,6.6594156]},"properties":{"name":"Kuan Yin Temple","tradition":"buddhist","country_code":"my"}},{"type":"Feature","geometry":{"type":"Point","coordinates":[102.2517986,2.2004195]},"properties":{"name":"Poh On Kong","name:en":"Poh On Kong","tradition":"buddhist","country_code":"my"}},{"type":"Feature","geometry":{"type":"Point","coordinates":[102.259324,2.1887215]},"properties":{"name":"怡力觀音堂","tradition":"buddhist","country_code":"my"}},{"type":"Feature","geometry":{"type":"Point","coordinates":[111.4604749,1.2317117]},"properties":{"name":"Sri Aman Buddist Association","tradition":"buddhist","country_code":"my"}},{"type":"Feature","geometry":{"type":"Point","coordinates":[110.326904,1.4693108]},"properties":{"name":"Sam San Kuet Bong Temple","tradition":"buddhist","country_code":"my"}},{"type":"Feature","geometry":{"type":"Point","coordinates":[110.327044,1.469294]},"properties":{"name":"Sam San Kuet Bong Temple","tradition":"buddhist","country_code":"my"}},{"type":"Feature","geometry":{"type":"Point","coordinates":[110.3272832,1.4692017]},"properties":{"name":"Sam San Kuet Bong Temple","tradition":"buddhist","country_code":"my"}},{"type":"Feature","geometry":{"type":"Point","coordinates":[110.3270915,1.4698143]},"properties":{"name":"Sam San Kuet Bong Temple","tradition":"buddhist","country_code":"my"}},{"type":"Feature","geometry":{"type":"Point","coordinates":[110.3263645,1.4690381]},"properties":{"name":"Sam San Kuet Bong Temple","tradition":"buddhist","country_code":"my"}},{"type":"Feature","geometry":{"type":"Point","coordinates":[110.3261352,1.469136]},"properties":{"name":"Sam San Kuet Bong Temple","tradition":"buddhist","country_code":"my"}},{"type":"Feature","geometry":{"type":"Point","coordinates":[110.3266047,1.4690515]},"properties":{"name":"Sam San Kuet Bong Temple","tradition":"buddhist","country_code":"my"}},{"type":"Feature","geometry":{"type":"Point","coordinates":[110.325804,1.4692472]},"properties":{"name":"Sam San Kuet Bong Temple","tradition":"buddhist","country_code":"my"}},{"type":"Feature","geometry":{"type":"Point","coordinates":[110.3255787,1.4693102]},"properties":{"name":"Sam San Kuet Bong Temple","tradition":"buddhist","country_code":"my"}},{"type":"Feature","geometry":{"type":"Point","coordinates":[110.3253467,1.4694577]},"properties":{"name":"Sam San Kuet Bong Temple","tradition":"buddhist","country_code":"my"}},{"type":"Feature","geometry":{"type":"Point","coordinates":[110.3256229,1.4688758]},"properties":{"name":"Sam San Kuet Bong Temple","tradition":"buddhist","country_code":"my"}},{"type":"Feature","geometry":{"type":"Point","coordinates":[110.3251348,1.4700489]},