{"type":"FeatureCollection","features":[{"type":"Feature","geometry":{"type":"Point","coordinates":[83.7835743,28.8376475]},"properties":{"name":"Kagbeni Gompa","tradition":"buddhist","country_code":"np"}},{"type":"Feature","geometry":{"type":"Point","coordinates":[85.2659893,27.6321799]},"properties":{"name":"दुदजोम नाड्रोम चोलिङ","name:en":"Dudjom Nadrom Choling","tradition":"buddhist","denomination":"tibetan","country_code":"np"}},{"type":"Feature","geometry":{"type":"Point","coordinates":[85.2634751,27.6242659]},"properties":{"name":"Stupa","tradition":"buddhist","denomination":"tibetan","country_code":"np"}},{"type":"Feature","geometry":{"type":"Point","coordinates":[85.2640437,27.6164131]},"properties":{"name":"Yanglesho Cave","tradition":"buddhist","country_code":"np"}},{"type":"Feature","geometry":{"type":"Point","coordinates":[85.5824587,27.5713588]},"properties":{"name":"काग्यु-मठ","name:en":"Kagyu-Monastery","tradition":"buddhist","country_code":"np"}},{"type":"Feature","geometry":{"type":"Point","coordinates":[85.5825667,27.5732357]},"properties":{"name":"नमो बुद्ध स्तूपा","name:en":"Namo Buddha Stupa","tradition":"buddhist","country_code":"np"}},{"type":"Feature","geometry":{"type":"Point","coordinates":[85.2611103,27.6125567]},"properties":{"name":"Stupa","tradition":"buddhist","country_code":"np"}},{"type":"Feature","geometry":{"type":"Point","coordinates":[85.3271415,27.6689984]},"properties":{"name":"महाबुद्ध मन्दिर","name:en":"Mahabuddha Temple","tradition":"buddhist","country_code":"np"}},{"type":"Feature","geometry":{"type":"Point","coordinates":[85.3046155,27.6999229]},"properties":{"name":"तुकाम्बाल बुद्ध स्तूपा","name:en":"Tukambahal Buddha Stupa","tradition":"buddhist","country_code":"np"}},{"type":"Feature","geometry":{"type":"Point","coordinates":[85.5659008,28.2144358]},"properties":{"name:en":"Stupa","tradition":"buddhist","country_code":"np"}},{"type":"Feature","geometry":{"type":"Point","coordinates":[85.2459964,27.6012868]},"properties":{"name":"Stupa with remains of Chagdud Tulku Rinpoche","tradition":"buddhist","denomination":"tibetan","country_code":"np"}},{"type":"Feature","geometry":{"type":"Point","coordinates":[86.6436528,27.8302991]},"properties":{"name":"Thame Monastery","tradition":"buddhist","country_code":"np"}},{"type":"Feature","geometry":{"type":"Point","coordinates":[86.6915411,27.8125846]},"properties":{"name":"Furte Stupa","tradition":"buddhist","country_code":"np"}},{"type":"Feature","geometry":{"type":"Point","coordinates":[85.310888,27.7104283]},"properties":{"name":"Tahiti Stupa","tradition":"buddhist","country_code":"np"}},{"type":"Feature","geometry":{"type":"Point","coordinates":[85.307694,27.705133]},"properties":{"name":"भोडी वृक्ष","name:en":"Bhodi Tree","tradition":"buddhist","country_code":"np"}},{"type":"Feature","geometry":{"type":"Point","coordinates":[85.3072942,27.7077724]},"properties":{"name":"नारदेवी अजिमा मन्दिर","name:en":"Nardevi Ajima Temple","tradition":"buddhist","addr:city":"Kathmandu","country_code":"np","phone":"+9779803340428"}},{"type":"Feature","geometry":{"type":"Point","coordinates":[83.9471549,29.1904021]},"properties":{"name":"Namgyal Gompa","tradition":"buddhist","country_code":"np"}},{"type":"Feature","geometry":{"type":"Point","coordinates":[83.9335103,29.0911029]},"properties":{"name":"Charang Gompa","tradition":"buddhist","country_code":"np"}},{"type":"Feature","geometry":{"type":"Point","coordinates":[83.8885349,29.1243677]},"properties":{"name":"Ghar Gompa","tradition":"buddhist","country_code":"np"}},{"type":"Feature","geometry":{"type":"Point","coordinates":[83.8773596,29.0911877]},"properties":{"name":"Dhakmar Gompa","tradition":"buddhist","country_code":"np"}},{"type":"Feature","geometry":{"type":"Point","coordinates":[83.8352407,28.9091981]},"properties":{"name":"Tetang Gompa","tradition":"buddhist","country_code":"np"}},{"type":"Feature","geometry":{"type":"Point","coordinates":[83.8229638,28.9767727]},"properties":{"name":"Runchung Cave","tradition":"buddhist","country_code":"np"}},{"type":"Feature","geometry":{"type":"Point","coordinates":[83.8217639,28.977353]},"properties":{"name":"Spring Cave","tradition":"buddhist","country_code":"np"}},{"type":"Feature","geometry":{"type":"Point","coordinates":[83.8604164,29.0068591]},"properties":{"name":"Geling Gompa","tradition":"buddhist","country_code":"np"}},{"type":"Feature","geometry":{"type":"Point","coordinates":[83.8606612,29.0073867]},"properties":{"name":"Geling Gompa","tradition":"buddhist","country_code":"np"}},{"type":"Feature","geometry":{"type":"Point","coordinates":[85.9621142,27.5442018]},"properties":{"name":"Rajbhir Monastery","tradition":"buddhist","country_code":"np"}},{"type":"Feature","geometry":{"type":"Point","coordinates":[83.8002129,28.380292]},"properties":{"name":"Meshram Baraha Mandir","tradition":"buddhist","country_code":"np"}},{"type":"Feature","geometry":{"type":"Point","coordinates":[83.6828946,28.7381155]},"properties":{"name":"Chairo Gompa","tradition":"buddhist","country_code":"np"}},{"type":"Feature","geometry":{"type":"Point","coordinates":[85.4489674,27.8318181]},"properties":{"name":"Buddhist Monastry (2137m)","tradition":"buddhist","country_code":"np"}},{"type":"Feature","geometry":{"type":"Point","coordinates":[84.092994,28.6560825]},"properties":{"name":"Karma Samten Ling Monastery","tradition":"buddhist","country_code":"np","website":"http://www.samtenling.net/eng-STL-mng"}},{"type":"Feature","geometry":{"type":"Point","coordinates":[85.5416954,27.6555421]},"properties":{"name":"Gumba Temple","tradition":"buddhist","country_code":"np"}},{"type":"Feature","geometry":{"type":"Point","coordinates":[85.5131685,27.5837064]},"properties":{"name":"सानो बौद्ध मन्दिर","name:en":"Small Buddhist Shrine","tradition":"buddhist","country_code":"np"}},{"type":"Feature","geometry":{"type":"Point","coordinates":[85.5156516,27.5838166]},"properties":{"name":"सानो हिन्दू मन्दिर","name:en":"small Hindu shrine","tradition":"buddhist","country_code":"np"}},{"type":"Feature","geometry":{"type":"Point","coordinates":[85.5149835,27.5846056]},"properties":{"name":"सोरहाखुट्टे स्तूपा","name:en":"Sorhakhutte Stupa","tradition":"buddhist","country_code":"np"}},{"type":"Feature","geometry":{"type":"Point","coordinates":[85.2776022,27.6778602]},"properties":{"name":"लोहान देगा","name:en":"Lohan Degaa","tradition":"buddhist","country_code":"np"}},{"type":"Feature","geometry":{"type":"Point","coordinates":[86.7090482,27.805083]},"properties":{"name":"Namche Gompa","tradition":"buddhist","country_code":"np"}},{"type":"Feature","geometry":{"type":"Point","coordinates":[85.3046825,27.7014444]},"properties":{"name":"लखै हाउस","name:en":"Lakhae House","tradition":"buddhist","country_code":"np"}},{"type":"Feature","geometry":{"type":"Point","coordinates":[85.3074066,27.6992022]},"properties":{"name":"सेतो मच्छिन्द्र नाथकी आमा","name:en":"Mother Of Seto Machindra Nath","tradition":"buddhist","country_code":"np"}},{"type":"Feature","geometry":{"type":"Point","coordinates":[84.154362,28.6159702]},"properties":{"name":"Upper Pisang Buddhist Temple","tradition":"buddhist","country_code":"np"}},{"type":"Feature","geometry":{"type":"Point","coordinates":[83.2783854,27.4755787]},"properties":{"name":"Gautami Nun Monastery","tradition":"buddhist","country_code":"np"}},{"type":"Feature","geometry":{"type":"Point","coordinates":[83.2780554,27.4772045]},"properties":{"name":"Myanmar Monastery","tradition":"buddhist","country_code":"np"}},{"type":"Feature","geometry":{"type":"Point","coordinates":[86.614561,27.5919671]},"properties":{"name":"Old Stupa area","tradition":"buddhist","country_code":"np"}},{"type":"Feature","geometry":{"type":"Point","coordinates":[84.0525311,28.6540723]},"properties":{"name":"Sher Gompa","tradition":"buddhist","country_code":"np"}},{"type":"Feature","geometry":{"type":"Point","coordinates":[84.059563,28.6785695]},"properties":{"name":"Icelake-Stupa","tradition":"buddhist","country_code":"np"}},{"type":"Feature","geometry":{"type":"Point","coordinates":[84.137808,28.6416564]},"properties":{"name":"Ghyaru Gompa","tradition":"buddhist","country_code":"np"}},{"type":"Feature","geometry":{"type":"Point","coordinates":[83.9740691,28.6703344]},"properties":{"name":"Khangsar Stupa","tradition":"buddhist","country_code":"np"}},{"type":"Feature","geometry":{"type":"Point","coordinates":[84.3749637,28.4704899]},"properties":{"name":"Tal Gompa","tradition":"buddhist","country_code":"np"}},{"type":"Feature","geometry":{"type":"Point","coordinates":[84.3538338,28.5272565]},"properties":{"name":"Thoche Gompa","tradition":"buddhist","country_code":"np"}},{"type":"Feature","geometry":{"type":"Point","coordinates":[84.2587478,28.5520954]},"properties":{"name":"Gompa","tradition":"buddhist","country_code":"np"}},{"type":"Feature","geometry":{"type":"Point","coordinates":[83.786561,28.8407632]},"properties":{"name":"Kagbeni Stupa","tradition":"buddhist","country_code":"np"}},{"type":"Feature","geometry":{"type":"Point","coordinates":[83.8538081,28.8268379]},"properties":{"name":"Jhong Gompa","tradition":"buddhist","country_code":"np"}},{"type":"Feature","geometry":{"type":"Point","coordinates":[85.326259,27.6687013]},"properties":{"name":"जेठा बहाल","name:en":"Jetha Bahal","tradition":"buddhist","country_code":"np"}},{"type":"Feature","geometry":{"type":"Point","coordinates":[85.5275519,27.6348182]},"properties":{"name":"दिगु ड्यो","name:en":"Digu Dyo","tradition":"buddhist","country_code":"np"}},{"type":"Feature","geometry":{"type":"Point","coordinates":[85.5664444,27.6123454]},"properties":{"name":"शान्ति बन","name:en":"Shanti Ban","tradition":"buddhist","country_code":"np"}},{"type":"Feature","geometry":{"type":"Point","coordinates":[83.799905,28.9623699]},"properties":{"name":"Orgyen Drub Guye Gompa","tradition":"buddhist","country_code":"np"}},{"type":"Feature","geometry":{"type":"Point","coordinates":[84.4237078,27.6995719]},"properties":{"name":"Chitrawan Buddha Bihar","tradition":"buddhist","country_code":"np"}},{"type":"Feature","geometry":{"type":"Point","coordinates":[84.4405014,27.7022606]},"properties":{"name":"Tinkhol Mahabauddha Gomba","tradition":"buddhist","addr:street":"Mini Ring Road","addr:housenumber":"Bypass Road","addr:city":"Narayangarh","country_code":"np"}},{"type":"Feature","geometry":{"type":"Point","coordinates":[85.3197893,27.6744901]},"properties":{"name":"पद्मावती महा बिहार","name:en":"Padmavati Maha Bihar","tradition":"buddhist","country_code":"np"}},{"type":"Feature","geometry":{"type":"Point","coordinates":[85.3131022,27.672901]},"properties":{"name":"chariot end point","name:en":"chariot end point","tradition":"buddhist","country_code":"np"}},{"type":"Feature","geometry":{"type":"Point","coordinates":[85.2917351,27.6658117]},"properties":{"name":"अमिताम्भा बुद्ध स्तूप","name:en":"Amitambha Budhha Stupa","tradition":"buddhist","country_code":"np"}},{"type":"Feature","geometry":{"type":"Point","coordinates":[85.2783227,27.6699138]},"properties":{"name":"पाहु चिबा","name:en":"Pahu Chiba","tradition":"buddhist","country_code":"np"}},{"type":"Feature","geometry":{"type":"Point","coordinates":[85.2780108,27.6693964]},"properties":{"name":"हेखली चिबा","name:en":"Hekhali Chiba","tradition":"buddhist","country_code":"np"}},{"type":"Feature","geometry":{"type":"Point","coordinates":[85.2770011,27.669336]},"properties":{"name":"महन्बा चिबा","name:en":"Mahanbwa Chiba","tradition":"buddhist","country_code":"np"}},{"type":"Feature","geometry":{"type":"Point","coordinates":[85.2761049,27.6685405]},"properties":{"name":"दथल चिबा","name:en":"Dathal Chiba","tradition":"buddhist","country_code":"np"}},{"type":"Feature","geometry":{"type":"Point","coordinates":[85.2767325,27.6688527]},"properties":{"name":"ध्वा-खा-फाह चिबा","name:en":"Dhwa-kha-phah Chiba","tradition":"buddhist","country_code":"np"}},{"type":"Feature","geometry":{"type":"Point","coordinates":[85.2768578,27.6694778]},"properties":{"name":"लिआ-बा चिबा","name:en":"Lya-ba Chiba","tradition":"buddhist","country_code":"np"}},{"type":"Feature","geometry":{"type":"Point","coordinates":[85.5152725,27.5848802]},"properties":{"name":"नु बाहल","name:en":"nhu bahal","tradition":"buddhist","country_code":"np"}},{"type":"Feature","geometry":{"type":"Point","coordinates":[85.3289821,27.6787088]},"properties":{"name":"Chibaha","tradition":"buddhist","country_code":"np"}},{"type":"Feature","geometry":{"type":"Point","coordinates":[88.0617499,26.8953729]},"properties":{"name":"Lepcha monastery","tradition":"buddhist","country_code":"np"}},{"type":"Feature","geometry":{"type":"Point","coordinates":[85.2869954,27.6965321]},"properties":{"name":"नेपाल सोका गक्काई इन्टरनेशनल","name:en":"Nepal Soka Gakkai International","tradition":"buddhist","denomination":"mahayana","addr:street":"Matatirtha Marg","addr:housenumber":"370/74","addr:city":"Kathmandu","country_code":"np","website":"https://www.nepalsgi.org/"}},{"type":"Feature","geometry":{"type":"Point","coordinates":[83.2732613,27.4800565]},"properties":{"name":"Geden International Monastery (Austria)","tradition":"buddhist","country_code":"np"}},{"type":"Feature","geometry":{"type":"Point","coordinates":[83.2781309,27.4783908]},"properties":{"name":"Cambodia Monastery","tradition":"buddhist","country_code":"np"}},{"type":"Feature","geometry":{"type":"Point","coordinates":[83.2788352,27.4817498]},"properties":{"name":"Royal Thai Monastery","tradition":"buddhist","country_code":"np"}},{"type":"Feature","geometry":{"type":"Point","coordinates":[83.2771171,27.4762015]},"properties":{"name":"Vipassana Center","tradition":"buddhist","country_code":"np"}},{"type":"Feature","geometry":{"type":"Point","coordinates":[85.3277745,27.6766585]},"properties":{"name":"Karuna Bahi","tradition":"buddhist","country_code":"np"}},{"type":"Feature","geometry":{"type":"Point","coordinates":[85.3278791,27.6768105]},"properties":{"name":"Yampi Bahi","tradition":"buddhist","country_code":"np"}},{"type":"Feature","geometry":{"type":"Point","coordinates":[85.3277392,27.6746115]},"properties":{"name":"Vaisajya Bihar","tradition":"buddhist","country_code":"np"}},{"type":"Feature","geometry":{"type":"Point","coordinates":[85.3278545,27.6749512]},"properties":{"name":"मनिकुटा बिहार","name:en":"Manikuta Bihar","tradition":"buddhist","country_code":"np"}},{"type":"Feature","geometry":{"type":"Point","coordinates":[85.3288872,27.6734142]},"properties":{"name":"चियाग्मा","name:en":"Chyagma","tradition":"buddhist","country_code":"np"}},{"type":"Feature","geometry":{"type":"Point","coordinates":[85.4816918,27.9374245]},"properties":{"name":"Stupa","tradition":"buddhist","country_code":"np"}},{"type":"Feature","geometry":{"type":"Point","coordinates":[88.0834907,27.0233748]},"properties":{"name":"Meghma Gompa","tradition":"buddhist","country_code":"np"}},{"type":"Feature","geometry":{"type":"Point","coordinates":[83.8724526,28.8175592]},"properties":{"name":"Fire Gompa","tradition":"buddhist","country_code":"np"}},{"type":"Feature","geometry":{"type":"Point","coordinates":[83.8704423,28.8172364]},"properties":{"name":"Samba Gompa","tradition":"buddhist","country_code":"np"}},{"type":"Feature","geometry":{"type":"Point","coordinates":[84.5435652,27.9051331]},"properties":{"name":"Gumba","tradition":"buddhist","addr:city":"Aanbu Khaireni","addr:postcode":"33905","country_code":"np"}},{"type":"Feature","geometry":{"type":"Point","coordinates":[86.7161834,27.8251512]},"properties":{"name":"Khumjung Gompa","tradition":"buddhist","country_code":"np"}},{"type":"Feature","geometry":{"type":"Point","coordinates":[85.2775974,27.6706479]},"properties":{"name":"पबित्रा बिहार","name:en":"Pabitra Bihar","tradition":"buddhist","country_code":"np"}},{"type":"Feature","geometry":{"type":"Point","coordinates":[85.2778662,27.6701907]},"properties":{"name":"ल्याबा चिबा","name:en":"Lyaba Chiba","tradition":"buddhist","country_code":"np"}},{"type":"Feature","geometry":{"type":"Point","coordinates":[84.0269033,28.6665194]},"properties":{"name":"Stupa","tradition":"buddhist","country_code":"np"}},{"type":"Feature","geometry":{"type":"Point","coordinates":[83.8482997,28.8193437]},"properties":{"name":"Jhar Chode","name:en":"Jharkot Monastery","tradition":"buddhist","addr:city":"Jharkot","country_code":"np"}},{"type":"Feature","geometry":{"type":"Point","coordinates":[85.3150658,27.6712151]},"properties":{"name":"बुद्ध मूर्ति","name:en":"Buddha Statue","tradition":"buddhist","country_code":"np"}},{"type":"Feature","geometry":{"type":"Point","coordinates":[85.3092633,27.6678389]},"properties":{"name":"तिबेटियन गुम्बा","name:en":"Tibetan Gumba","tradition":"buddhist","country_code":"np"}},{"type":"Feature","geometry":{"type":"Point","coordinates":[84.2749484,28.7759952]},"properties":{"name":"Tashi Lakhang Gompa","tradition":"buddhist","addr:city":"phu manang","country_code":"np"}},{"type":"Feature","geometry":{"type":"Point","coordinates":[85.3821313,28.1631313]},"properties":{"name":"Langtasa","tradition":"buddhist","country_code":"np"}},{"type":"Feature","geometry":{"type":"Point","coordinates":[85.5464178,28.2099735]},"properties":{"name:en":"Chorten","tradition":"buddhist","country_code":"np"}},{"type":"Feature","geometry":{"type":"Point","coordinates":[85.5561959,28.210602]},"properties":{"name:en":"Stupa","tradition":"buddhist","country_code":"np"}},{"type":"Feature","geometry":{"type":"Point","coordinates":[85.3125554,27.7156386]},"properties":{"name":"Mahakala Temple","name:en":"Mahakala Temple","tradition":"buddhist","country_code":"np"}},{"type":"Feature","geometry":{"type":"Point","coordinates":[84.3027633,28.2872171]},"properties":{"name":"Sahamba Chneling Monarch","tradition":"buddhist","country_code":"np"}},{"type":"Feature","geometry":{"type":"Point","coordinates":[84.3081347,28.2792075]},"properties":{"name":"Shree Uttarkanya Kumari Devi Mandir","tradition":"buddhist","country_code":"np"}},{"type":"Feature","geometry":{"type":"Point","coordinates":[85.3606137,27.6441045]},"properties":{"name":"Shri Siddhimangal Buddha Bihar","tradition":"buddhist","country_code":"np"}},{"type":"Feature","geometry":{"type":"Point","coordinates":[85.3634734,27.7429756]},"properties":{"name":"महान स्तूपा","name:en":"Great Stupa","tradition":"buddhist","country_code":"np"}},{"type":"Feature","geometry":{"type":"Point","coordinates":[85.3635475,27.7427603]},"properties":{"name":"नयाँ स्तूपा","name:en":"New Stupa","tradition":"buddhist","country_code":"np"}},{"type":"Feature","geometry":{"type":"Point","coordinates":[85.3643268,27.7423337]},"properties":{"name":"सानो स्तूपा","name:en":"Small Stupas","tradition":"buddhist","country_code":"np"}},{"type":"Feature","geometry":{"type":"Point","coordinates":[86.6998974,27.60454]},"properties":{"name":"Pemanamding-Monastery","tradition":"buddhist","country_code":"np"}},{"type":"Feature","geometry":{"type":"Point","coordinates":[86.5715828,27.46989]},"properties":{"name":"Jor Baudha","tradition":"buddhist","country_code":"np"}},{"type":"Feature","geometry":{"type":"Point","coordinates":[86.5716171,27.4699934]},"properties":{"name":"Jor Bouddha Stupa","tradition":"buddhist","addr:street":"Garma","addr:housenumber":"Jor Boudhha","addr:city":"Solukhumbu","country_code":"np"}},{"type":"Feature","geometry":{"type":"Point","coordinates":[85.1213154,27.6325544]},"properties":{"name":"Khola Kharkha Palchowk Mane","tradition":"buddhist","country_code":"np"}},{"type":"Feature","geometry":{"type":"Point","coordinates":[85.1213332,27.6325558]},"properties":{"name":"Khola Kharkha Palchowk Mane","tradition":"buddhist","country_code":"np"}},{"type":"Feature","geometry":{"type":"Point","coordinates":[85.1213474,27.6325558]},"properties":{"name":"Khola Kharkha Palchowk Mane","tradition":"buddhist","country_code":"np"}},{"type":"Feature","geometry":{"type":"Point","coordinates":[85.2760227,27.6733072]},"properties":{"name":"बुद्ध चैत्य","name:en":"Buddha chaitya","tradition":"buddhist","country_code":"np"}},{"type":"Feature","geometry":{"type":"Point","coordinates":[85.278229,27.6763619]},"properties":{"name":"करुणाकर विहार (केवीई बाहा)","name:en":"Karunakar Vihar (Kwe Baha)","tradition":"buddhist","country_code":"np"}},{"type":"Feature","geometry":{"type":"Point","coordinates":[85.3097563,27.7095419]},"properties":{"name":"काथेसिम्बु स्तूपा","name:en":"Kathesimbhu Stupa","tradition":"buddhist","denomination":"theravada","country_code":"np"}},{"type":"Feature","geometry":{"type":"Point","coordinates":[84.7999304,27.5608049]},"properties":{"name":"गंगा गुम्बा","name:en":"Ganga Gumba","tradition":"buddhist","country_code":"np"}},{"type":"Feature","geometry":{"type":"Point","coordinates":[84.5144251,27.6839571]},"properties":{"name":"shree sangakugn gumba","tradition":"buddhist","country_code":"np"}},{"type":"Feature","geometry":{"type":"Point","coordinates":[84.531305,27.6760944]},"properties":{"name":"dhekun tharbling gumba","tradition":"buddhist","country_code":"np"}},{"type":"Feature","geometry":{"type":"Point","coordinates":[85.3699001,27.7239063]},"properties":{"name":"कर्मा थिन्ले गोम्पा टेकचेन लेक्षे लिंग","name:en":"Karma Thinley Rinpoche Gompa","tradition":"buddhist","country_code":"np"}},{"type":"Feature","geometry":{"type":"Point","coordinates":[85.3626479,27.7254687]},"properties":{"name":"पावो गोम्पा","name:en":"Pawo Rinpoche Gompa","tradition":"buddhist","denomination":"kagyu","country_code":"np"}},{"type":"Feature","geometry":{"type":"Point","coordinates":[85.367803,27.7243757]},"properties":{"name":"नुनरी","name:en":"Tek Chok Ling Nunnery","tradition":"buddhist","country_code":"np"}},{"type":"Feature","geometry":{"type":"Point","coordinates":[85.3701237,27.7275192]},"properties":{"name":"अन्तर्राष्ट्रिय बौद्ध एकेडेमी","name:en":"International Buddhist Academy","tradition":"buddhist","denomination":"sakya","country_code":"np"}},{"type":"Feature","geometry":{"type":"Point","coordinates":[85.3021106,27.7234803]},"properties":{"name":"बुद्ध स्तुपा","name:en":"Buddha Stupa","tradition":"buddhist","country_code":"np"}},{"type":"Feature","geometry":{"type":"Point","coordinates":[85.2793811,27.7347263]},"properties":{"name":"Shar Minub Ling","tradition":"buddhist","country_code":"np"}},{"type":"Feature","geometry":{"type":"Point","coordinates":[84.9292295,27.8622898]},"properties":{"name":"Chorten","tradition":"buddhist","country_code":"np"}},{"type":"Feature","geometry":{"type":"Point","coordinates":[85.1632062,27.912277]},"properties":{"name":"Shree Bhairabi Temple","tradition":"buddhist","addr:street":"Bidur","addr:housenumber":"44900","addr:city":"Nuwakot","country_code":"np"}},{"type":"Feature","geometry":{"type":"Point","coordinates":[85.0818597,28.5104373]},"properties":{"name":"Rachen gompa","tradition":"buddhist","country_code":"np"}},{"type":"Feature","geometry":{"type":"Point","coordinates":[85.6188074,27.9236426]},"properties":{"name":"Monastery","tradition":"buddhist","country_code":"np"}},{"type":"Feature","geometry":{"type":"Point","coordinates":[83.2720102,27.4802944]},"properties":{"name":"Chinese Buddhist Monastery","tradition":"buddhist","country_code":"np"}},{"type":"Feature","geometry":{"type":"Point","coordinates":[83.2714625,27.4838249]},"properties":{"name":"Lama Guru Meditation Center","tradition":"buddhist","country_code":"np"}},{"type":"Feature","geometry":{"type":"Point","coordinates":[83.2797284,27.4763829]},"properties":{"name":"Sri Lankan Monastery","tradition":"buddhist","country_code":"np"}},{"type":"Feature","geometry":{"type":"Point","coordinates":[83.2733194,27.4844153]},"properties":{"name":"French Buddhist Association Lumbini","tradition":"buddhist","country_code":"np"}},{"type":"Feature","geometry":{"type":"Point","coordinates":[83.2777969,27.4761443]},"properties":{"name":"Myanmar Golden Temple","tradition":"buddhist","country_code":"np"}},{"type":"Feature","geometry":{"type":"Point","coordinates":[83.274575,27.4759934]},"properties":{"name":"Panditarama International Vipassana Meditation Centre","tradition":"buddhist","country_code":"np"}},{"type":"Feature","geometry":{"type":"Point","coordinates":[83.2736064,27.4813326]},"properties":{"name":"Phat Quoc Tu (Vietnamese Temple)","tradition":"buddhist","country_code":"np"}},{"type":"Feature","geometry":{"type":"Point","coordinates":[83.2729397,27.4801825]},"properties":{"name":"Mother Temple of the graduated path to enlightenment","tradition":"buddhist","country_code":"np"}},{"type":"Feature","geometry":{"type":"Point","coordinates":[85.3099873,27.7098176]},"properties":{"name":"Drubgon Jangchup Choeling Monastery","tradition":"buddhist","country_code":"np"}},{"type":"Feature","geometry":{"type":"Point","coordinates":[83.7081821,28.7650127]},"properties":{"name":"Nyingma monastery","tradition":"buddhist","country_code":"np"}},{"type":"Feature","geometry":{"type":"Point","coordinates":[83.70964,28.7639779]},"properties":{"name":"Guru Rinpoche meditation stone","tradition":"buddhist","country_code":"np"}},{"type":"Feature","geometry":{"type":"Point","coordinates":[83.7095329,28.7638766]},"properties":{"name":"Buddhist stupa","tradition":"buddhist","country_code":"np"}},{"type":"Feature","geometry":{"type":"Point","coordinates":[83.7087471,28.7644952]},"properties":{"name":"Guru Rinpoche footprint","tradition":"buddhist","country_code":"np"}},{"type":"Feature","geometry":{"type":"Point","coordinates":[86.1711142,28.1170184]},"properties":{"name":"Milarepa cave","tradition":"buddhist","country_code":"np"}},{"type":"Feature","geometry":{"type":"Point","coordinates":[86.1711047,28.1172084]},"properties":{"name":"Rechungpa cave","tradition":"buddhist","country_code":"np"}},{"type":"Feature","geometry":{"type":"Point","coordinates":[85.2629325,27.6297948]},"properties":{"name":"गुरु रिन्पोचे","name:en":"Guru Rinpoche","tradition":"buddhist","country_code":"np"}},{"type":"Feature","geometry":{"type":"Point","coordinates":[85.3213559,27.6743481]},"properties":{"name":"यशोधर महाविहार","name:en":"Yasodhar Mahavihar","tradition":"buddhist","country_code":"np"}},{"type":"Feature","geometry":{"type":"Point","coordinates":[85.3860602,27.6795595]},"properties":{"name":"दिगु बाहा","name:en":"Guna Kirti Mahabihar","tradition":"buddhist","addr:street":"Digu Tol","addr:city":"Madhyapur Thimi","country_code":"np"}},{"type":"Feature","geometry":{"type":"Point","coordinates":[83.999534,28.2218773]},"properties":{"name":"Bishwo Shanti Buddha Gumnba","tradition":"buddhist","country_code":"np"}},{"type":"Feature","geometry":{"type":"Point","coordinates":[83.9847767,28.237524]},"properties":{"name":"Dharmasangh Buddha Bihar","tradition":"buddhist","country_code":"np"}},{"type":"Feature","geometry":{"type":"Point","coordinates":[85.2729854,27.6830802]},"properties":{"name":"धम्म कित्त्ति विपश्यना केन्द्र","name:en":"Dhamma Kitti Vipassana Center","tradition":"buddhist","country_code":"np"}},{"type":"Feature","geometry":{"type":"Point","coordinates":[85.3423037,27.7140273]},"properties":{"name":"कुतुबाहल मन्दिर (राजकृति गगनगञ्ज महाबिहार)","name:en":"Kutubahal Temple(Rajkriti Gagangunj Mahabihar)","tradition":"buddhist","addr:street":"Chandra Binayak Marg","country_code":"np"}},{"type":"Feature","geometry":{"type":"Point","coordinates":[85.4905605,27.7125468]},"properties":{"name":"Small white gomba","tradition":"buddhist","country_code":"np"}},{"type":"Feature","geometry":{"type":"Point","coordinates":[85.3666189,27.7232114]},"properties":{"name":"धर्मराज फाउन्डेसन (डीकेडीएफ)","name:en":"Dharmaraja Foundation (DKDF)","tradition":"buddhist","country_code":"np"}},{"type":"Feature","geometry":{"type":"Point","coordinates":[85.325144,27.6705775]},"properties":{"name":"jyaba bahi (jestha barna maha bihar)","tradition":"buddhist","addr:street":"Okubhal to Chhakra bhil Road","country_code":"np"}},{"type":"Feature","geometry":{"type":"Point","coordinates":[85.3412418,27.6589188]},"properties":{"name":"गुम्बा","name:en":"Gumba","tradition":"buddhist","country_code":"np"}},{"type":"Feature","geometry":{"type":"Point","coordinates":[84.1528221,28.6163108]},"properties":{"name":"Stüpa","tradition":"buddhist","country_code":"np"}},{"type":"Feature","geometry":{"type":"Point","coordinates":[85.4227621,27.6728439]},"properties":{"name":"Thathu Bahi","name:en":"Thathu Bahi","tradition":"buddhist","addr:street":"Napookhu","country_code":"np"}},{"type":"Feature","geometry":{"type":"Point","coordinates":[83.8692744,28.8195805]},"properties":{"name":"Gompa","tradition":"buddhist","country_code":"np"}},{"type":"Feature","geometry":{"type":"Point","coordinates":[83.9782399,29.2348253]},"properties":{"name":"Lo Niphu Monastery","tradition":"buddhist","country_code":"np"}},{"type":"Feature","geometry":{"type":"Point","coordinates":[83.9406122,29.215391]},"properties":{"name":"Monastery School","tradition":"buddhist","country_code":"np"}},{"type":"Feature","geometry":{"type":"Point","coordinates":[83.9739912,29.233639]},"properties":{"name":"Lo Garphu Monastery","tradition":"buddhist","country_code":"np"}},{"type":"Feature","geometry":{"type":"Point","coordinates":[84.0351541,29.0853149]},"properties":{"name":"Luri Gompa Monastery","tradition":"buddhist","country_code":"np"}},{"type":"Feature","geometry":{"type":"Point","coordinates":[84.0224562,29.0867757]},"properties":{"name":"Tashi Kabum Cave","tradition":"buddhist","country_code":"np"}},{"type":"Feature","geometry":{"type":"Point","coordinates":[84.0355927,29.087987]},"properties":{"name":"Luri Cave and Chorten","tradition":"buddhist","country_code":"np"}},{"type":"Feature","geometry":{"type":"Point","coordinates":[85.2852672,27.7143933]},"properties":{"name":"मनाङ गुम्बा","name:en":"Manang Gumba","tradition":"buddhist","country_code":"np"}},{"type":"Feature","geometry":{"type":"Point","coordinates":[83.9822021,28.2400938]},"properties":{"name":"Changyur Sangngh Chyoling Monastery","name:en":"Changyur Sangngh Chyoling Monastery","tradition":"buddhist","country_code":"np"}},{"type":"Feature","geometry":{"type":"Point","coordinates":[83.9608103,28.2188517]},"properties":{"name":"Pema Dechenling Monastery","name:en":"Yellow Budda","tradition":"buddhist","denomination":"tibetan","country_code":"np"}},{"type":"Feature","geometry":{"type":"Point","coordinates":[84.2435594,28.5508698]},"properties":{"name:en":"Mane Dhung Gyur","tradition":"buddhist","country_code":"np"}},{"type":"Feature","geometry":{"type":"Point","coordinates":[84.1094339,28.1645531]},"properties":{"name":"Pokhara Vipassama Sanctuary","tradition":"buddhist","country_code":"np"}},{"type":"Feature","geometry":{"type":"Point","coordinates":[85.311911,27.7128291]},"properties":{"name":"अशोक स्तूपा","name:en":"Ashoka Stupa","tradition":"buddhist","country_code":"np"}},{"type":"Feature","geometry":{"type":"Point","coordinates":[85.2933049,27.7103546]},"properties":{"name":"डायमण्डवे बौद्ध समूह काठमाडौं","name:en":"Diamondway Buddhist Group Kathmandu","tradition":"buddhist","addr:street":"Adikabi Marg, Swoyambhu 15","addr:housenumber":"578","addr:postcode":"00000","country_code":"np","phone":"009779808666068","website":"http://www.diamondway-kathmandu.org"}},{"type":"Feature","geometry":{"type":"Point","coordinates":[83.9566141,28.2615624]},"properties":{"name":"Jangchup Choling monastery ( Shangpa Rinpoche)","tradition":"buddhist","country_code":"np"}},{"type":"Feature","geometry":{"type":"Point","coordinates":[84.0699975,28.1655031]},"properties":{"name":"Laliguras Tamu Buddha Gumba","tradition":"buddhist","country_code":"np"}},{"type":"Feature","geometry":{"type":"Point","coordinates":[85.3281952,27.6674493]},"properties":{"name":"सुमंगल महाबिहार","name:en":"Sumangal Mahabihar","tradition":"buddhist","country_code":"np"}},{"type":"Feature","geometry":{"type":"Point","coordinates":[85.3259164,27.6698784]},"properties":{"name":"शाक्य सिन्हा विहार","name:en":"Shakya Sinha Vihar","tradition":"buddhist","country_code":"np"}},{"type":"Feature","geometry":{"type":"Point","coordinates":[85.3226385,27.6757851]},"properties":{"name:en":"Nakabahil","tradition":"buddhist","country_code":"np"}},{"type":"Feature","geometry":{"type":"Point","coordinates":[84.1656409,28.1616493]},"properties":{"name":"Mohoreya Gumba","tradition":"buddhist","country_code":"np"}},{"type":"Feature","geometry":{"type":"Point","coordinates":[87.7032628,26.6769131]},"properties":{"name":"Durga mandir","name:en":"Durga mandir","tradition":"buddhist","country_code":"np"}},{"type":"Feature","geometry":{"type":"Point","coordinates":[85.365121,27.7205533]},"properties":{"name":"बौद्ध पिपलबोट","name:en":"Boudha Peepalbot","tradition":"buddhist","denomination":"Newari","addr:street":"Tusal Marga","country_code":"np"}},{"type":"Feature","geometry":{"type":"Point","coordinates":[85.3163647,27.6515135]},"properties":{"name:en":"Chibal","tradition":"buddhist","country_code":"np"}},{"type":"Feature","geometry":{"type":"Point","coordinates":[85.3601036,28.1424714]},"properties":{"name":"Tibetan Buddhist Temple","tradition":"buddhist","country_code":"np"}},{"type":"Feature","geometry":{"type":"Point","coordinates":[87.6893273,27.366077]},"properties":{"name":"Thisong Bouda Gumba","tradition":"buddhist","country_code":"np"}},{"type":"Feature","geometry":{"type":"Point","coordinates":[83.9540674,28.1859152]},"properties":{"name":"Nama Buddha","tradition":"buddhist","country_code":"np"}},{"type":"Feature","geometry":{"type":"Point","coordinates":[85.3968718,28.1627854]},"properties":{"name":"Lumbhu Choeling Gumba","tradition":"buddhist","addr:city":"Sherpagaun","country_code":"np"}},{"type":"Feature","geometry":{"type":"Point","coordinates":[83.8821037,28.1551856]},"properties":{"name":"Buddha Monastry","tradition":"buddhist","addr:street":"Sidhartha Highway","addr:postcode":"33808","country_code":"np"}},{"type":"Feature","geometry":{"type":"Point","coordinates":[84.0412362,28.6590895]},"properties":{"name:en":"Buda statue","tradition":"buddhist","country_code":"np"}},{"type":"Feature","geometry":{"type":"Point","coordinates":[83.8704752,28.8155676]},"properties":{"name:en":"Sacred fire temple","tradition":"buddhist","country_code":"np"}},{"type":"Feature","geometry":{"type":"Point","coordinates":[86.3759091,27.9050483]},"properties":{"name":"historic Beding Gompa, Guru Rinpche cave","tradition":"buddhist","country_code":"np"}},{"type":"Feature","geometry":{"type":"Point","coordinates":[86.4152907,27.8850018]},"properties":{"name":"Guru Rinpoche image","tradition":"buddhist","country_code":"np"}},{"type":"Feature","geometry":{"type":"Point","coordinates":[86.6665694,27.8280563]},"properties":{"name":"stupa, chorten","tradition":"buddhist","country_code":"np"}},{"type":"Feature","geometry":{"type":"Point","coordinates":[86.6585845,27.8321645]},"properties":{"name":"Guru Rinpoche images (3 paintings)","tradition":"buddhist","country_code":"np"}},{"type":"Feature","geometry":{"type":"Point","coordinates":[86.6225624,27.1925455]},"properties":{"name":"Maratika Gumba","tradition":"buddhist","country_code":"np"}},{"type":"Feature","geometry":{"type":"Point","coordinates":[85.4165936,28.0835882]},"properties":{"name:en":"Water spouts, statue, prayer flags","tradition":"buddhist","country_code":"np"}},{"type":"Feature","geometry":{"type":"Point","coordinates":[85.8668004,27.4832297]},"properties":{"name:en":"Dhomghma Gompa","tradition":"buddhist","country_code":"np"}},{"type":"Feature","geometry":{"type":"Point","coordinates":[84.1107041,28.1642075]},"properties":{"name":"Mangal Dharma Chakra Gumba","tradition":"buddhist","country_code":"np"}},{"type":"Feature","geometry":{"type":"Point","coordinates":[88.0021077,27.712287]},"properties":{"name":"Jannu viewpoint","tradition":"buddhist","country_code":"np"}},{"type":"Feature","geometry":{"type":"Point","coordinates":[83.2732428,27.4851804]},"properties":{"name":"Urgen Dorjee Choling Buddhist Centre (Singapore)","tradition":"buddhist","country_code":"np"}},{"type":"Feature","geometry":{"type":"Point","coordinates":[83.2789509,27.4800675]},"properties":{"name":"Bodhi Institute (Canada)","tradition":"buddhist","country_code":"np"}},{"type":"Feature","geometry":{"type":"Point","coordinates":[83.2756228,27.4981699]},"properties":{"name":"Japanese Temple","tradition":"buddhist","country_code":"np"}},{"type":"Feature","geometry":{"type":"Point","coordinates":[85.3385052,27.715947]},"properties":{"name":"नागी गोम्बा","name:en":"Nagi Gomba","tradition":"buddhist","country_code":"np"}},{"type":"Feature","geometry":{"type":"Point","coordinates":[81.6528931,28.053282]},"properties":{"name":"Shiva Shakti Hanuman Mandir","tradition":"buddhist","country_code":"np"}},{"type":"Feature","geometry":{"type":"Point","coordinates":[81.6538668,28.0625511]},"properties":{"name":"Shri Nathu Baba Mandir","tradition":"buddhist","country_code":"np"}},{"type":"Feature","geometry":{"type":"Point","coordinates":[81.6300823,28.0678717]},"properties":{"name":"Baudha Dharma Sanga Gumba","tradition":"buddhist","country_code":"np"}},{"type":"Feature","geometry":{"type":"Point","coordinates":[81.6226432,28.0594214]},"properties":{"name":"Shri Ram Sita Temple","tradition":"buddhist","country_code":"np"}},{"type":"Feature","geometry":{"type":"Point","coordinates":[85.3268444,27.6757447]},"properties":{"name":"Dhumbahal Stupa","tradition":"buddhist","country_code":"np"}},{"type":"Feature","geometry":{"type":"Point","coordinates":[83.9655688,28.2466966]},"properties":{"name":"Namo Buddha","tradition":"buddhist","country_code":"np"}},{"type":"Feature","geometry":{"type":"Point","coordinates":[83.0512438,27.5719088]},"properties":{"name:en":"Wat Thai Kapilavatu Palace Temple","tradition":"buddhist","country_code":"np"}},{"type":"Feature","geometry":{"type":"Point","coordinates":[84.0807496,28.1323051]},"properties":{"name":"Shree Aanandha Dharma Chakra Baudha Gumba","tradition":"buddhist","country_code":"np"}},{"type":"Feature","geometry":{"type":"Point","coordinates":[84.0282673,28.6737614]},"properties":{"name:en":"Praken Gumpa","tradition":"buddhist","country_code":"np"}},{"type":"Feature","geometry":{"type":"Point","coordinates":[83.8009253,28.3778108]},"properties":{"name":"Brejmeshwor Barah Mandir","tradition":"buddhist","country_code":"np"}},{"type":"Feature","geometry":{"type":"Point","coordinates":[83.9223745,28.2185601]},"properties":{"name":"Gurung Temple","tradition":"buddhist","country_code":"np"}},{"type":"Feature","geometry":{"type":"Point","coordinates":[85.362115,27.7220235]},"properties":{"name":"गुरु लख्खाङ मठ","name:en":"Guru Lhakhang Monastery","tradition":"buddhist","country_code":"np"}},{"type":"Feature","geometry":{"type":"Point","coordinates":[85.2876757,27.7138318]},"properties":{"name:en":"Tibetan temple","tradition":"buddhist","country_code":"np"}},{"type":"Feature","geometry":{"type":"Point","coordinates":[83.9461615,28.2007137]},"properties":{"name":"Japanese Buddhist Temple","tradition":"buddhist","country_code":"np"}},{"type":"Feature","geometry":{"type":"Point","coordinates":[85.3029111,27.7136074]},"properties":{"name":"संघाराम बिहार","name:en":"Sangharam Bihar","tradition":"buddhist","country_code":"np"}},{"type":"Feature","geometry":{"type":"Point","coordinates":[86.7030142,27.8231769]},"properties":{"name:en":"Old Khunde Monastery","tradition":"buddhist","country_code":"np"}},{"type":"Feature","geometry":{"type":"Point","coordinates":[84.4134265,27.9378371]},"properties":{"name":"Buddhist Gompa","tradition":"buddhist","addr:city":"Bandipur","country_code":"np"}},{"type":"Feature","geometry":{"type":"Point","coordinates":[85.2882641,27.7160761]},"properties":{"name":"वोकेन थुक्जे चिल्लिङ मठ","name:en":"Wochen Thukje Chieling Monastery","tradition":"buddhist","country_code":"np"}},{"type":"Feature","geometry":{"type":"Point","coordinates":[85.5649245,27.9701276]},"properties":{"name":"Ghangyul Drukpa Kagyu Tashi Chhenje Gumba","tradition":"buddhist","denomination":"drukpa_kagyu","country_code":"np"}},{"type":"Feature","geometry":{"type":"Point","coordinates":[85.5232621,28.0176599]},"properties":{"name":"Melamchi Ghyang","tradition":"buddhist","country_code":"np"}},{"type":"Feature","geometry":{"type":"Point","coordinates":[85.5348717,27.9906416]},"properties":{"name":"Milarewa Cave","tradition":"buddhist","country_code":"np"}},{"type":"Feature","geometry":{"type":"Point","coordinates":[85.5375083,28.0061278]},"properties":{"name":"Nakote ghyang","tradition":"buddhist","country_code":"np"}},{"type":"Feature","geometry":{"type":"Point","coordinates":[85.5382995,27.9279676]},"properties":{"name":"Jyangu Semba Gumba","tradition":"buddhist","country_code":"np"}},{"type":"Feature","geometry":{"type":"Point","coordinates":[85.3610223,27.7908165]},"properties":{"name:en":"Sakya Stupa","tradition":"buddhist","country_code":"np"}},{"type":"Feature","geometry":{"type":"Point","coordinates":[85.3643972,27.729786]},"properties":{"name":"मोगम सामाजिक कल्याण केन्द्र","name:en":"Mogum Social Welfare Centre","tradition":"buddhist","country_code":"np"}},{"type":"Feature","geometry":{"type":"Point","coordinates":[84.0537339,28.6495097]},"properties":{"name:en":"Statue of Buddhist God","tradition":"buddhist","country_code":"np"}},{"type":"Feature","geometry":{"type":"Point","coordinates":[85.2774465,27.6779154]},"properties":{"name":"दुई स्वर्ण बुद्ध मूर्तिहरू","name:en":"Two Golden Buddha Statues","tradition":"buddhist","country_code":"np"}},{"type":"Feature","geometry":{"type":"Point","coordinates":[85.0762206,28.5153786]},"properties":{"name":"Milarepa Cave","tradition":"buddhist","country_code":"np"}},{"type":"Feature","geometry":{"type":"Point","coordinates":[83.7321403,28.3374592]},"properties":{"name":"Gumba","tradition":"buddhist","country_code":"np"}},{"type":"Feature","geometry":{"type":"Point","coordinates":[83.724217,28.3509138]},"properties":{"name":"Aautari Khebula Baje Gumba","tradition":"buddhist","country_code":"np"}},{"type":"Feature","geometry":{"type":"Point","coordinates":[83.7344731,28.3238072]},"properties":{"name":"Gumba","tradition":"buddhist","country_code":"np"}},{"type":"Feature","geometry":{"type":"Point","coordinates":[83.7322837,28.323832]},"properties":{"name":"Gumba","tradition":"buddhist","addr:city":"Modi Gaunpalika","country_code":"np"}},{"type":"Feature","geometry":{"type":"Point","coordinates":[83.7404028,28.2978391]},"properties":{"name":"Gurung Kul Mandir","tradition":"buddhist","addr:city":"Modi Rural Municipality","country_code":"np"}},{"type":"Feature","geometry":{"type":"Point","coordinates":[85.3092989,27.7383554]},"properties":{"name":"गुम्बा","name:en":"Gumba","tradition":"buddhist","addr:street":"Balaju Bishnumati Kinar Left","addr:postcode":"00977","country_code":"np"}},{"type":"Feature","geometry":{"type":"Point","coordinates":[85.5271615,27.6341677]},"properties":{"name":"चन्द्रकिर्ती बिहार","name:en":"Chandrakirti Bihar","tradition":"buddhist","denomination":"theravada","addr:street":"LO hithi marga","addr:city":"Banepa","country_code":"np"}},{"type":"Feature","geometry":{"type":"Point","coordinates":[83.5904636,28.6939454]},"properties":{"name":"Guru Rinpoche cave","tradition":"buddhist","country_code":"np"}},{"type":"Feature","geometry":{"type":"Point","coordinates":[85.3222861,27.6702536]},"properties":{"name":"लोक कृति महाबिहार","name:en":"Lok Kriti Mahabihar","tradition":"buddhist","addr:street":"Kinhubahi, Iti tole","addr:postcode":"44700","country_code":"np","phone":"015538413"}},{"type":"Feature","geometry":{"type":"Point","coordinates":[87.2044891,27.2076225]},"properties":{"name":"Sangay chhelung Gumba","tradition":"buddhist","addr:city":"Arun rural municipality","country_code":"np"}},{"type":"Feature","geometry":{"type":"Point","coordinates":[85.3217331,27.6739119]},"properties":{"name":"रत्नाकर महाबिहार","name:en":"Ratnakar Mahabihar","tradition":"buddhist","country_code":"np"}},{"type":"Feature","geometry":{"type":"Point","coordinates":[87.2243763,27.1614345]},"properties":{"name":"Gumba","tradition":"buddhist","addr:city":"Arun rural municipality 4","country_code":"np"}},{"type":"Feature","geometry":{"type":"Point","coordinates":[85.2878698,27.7102742]},"properties":{"name":"स्याङ्गे चोलिङ मठ","name:en":"Sangye Choeling Monastery","tradition":"buddhist","addr:street":"Swayambhu Kimdol","addr:housenumber":"15","addr:city":"Kathmandu","country_code":"np"}},{"type":"Feature","geometry":{"type":"Point","coordinates":[86.3607426,26.8343927]},"properties":{"name":"Tashi Dechhen Chhokorling Monastry","tradition":"buddhist","country_code":"np"}},{"type":"Feature","geometry":{"type":"Point","coordinates":[85.3614547,27.7223984]},"properties":{"name":"Guru Rinpoche Statue","name:en":"Guru Rinpoche Statue","tradition":"buddhist","denomination":"tibetan","country_code":"np"}},{"type":"Feature","geometry":{"type":"Point","coordinates":[85.3612501,27.7908284]},"properties":{"name:en":"Jamchen Vijaya Stupa","tradition":"buddhist","country_code":"np"}},{"type":"Feature","geometry":{"type":"Point","coordinates":[85.8902567,27.4897231]},"properties":{"name:en":"temple stupa","tradition":"buddhist","country_code":"np"}},{"type":"Feature","geometry":{"type":"Point","coordinates":[86.2298971,27.6512982]},"properties":{"name":"Josha Gumba","tradition":"buddhist","country_code":"np"}},{"type":"Feature","geometry":{"type":"Point","coordinates":[85.9387143,27.6930014]},"properties":{"name":"monuments","tradition":"buddhist","addr:street":"goreto","addr:housenumber":"09","addr:city":"Lakuri Dada","country_code":"np"}},{"type":"Feature","geometry":{"type":"Point","coordinates":[85.3596782,28.1409844]},"properties":{"name":"Buddhist Stupa","name:en":"Stupa","tradition":"buddhist","country_code":"np"}},{"type":"Feature","geometry":{"type":"Point","coordinates":[84.9961835,27.9685191]},"properties":{"name":"Tapcheng Chhoijong Gumba","tradition":"buddhist","country_code":"np"}},{"type":"Feature","geometry":{"type":"Point","coordinates":[84.9290049,27.9772282]},"properties":{"name":"Chang chub chhoiling Gumba","tradition":"buddhist","country_code":"np"}},{"type":"Feature","geometry":{"type":"Point","coordinates":[84.9982864,27.98326]},"properties":{"name":"Semjong Gumba","tradition":"buddhist","country_code":"np"}},{"type":"Feature","geometry":{"type":"Point","coordinates":[85.0231209,27.9823244]},"properties":{"name":"Konchhayog Sumala Gumba","tradition":"buddhist","country_code":"np"}},{"type":"Feature","geometry":{"type":"Point","coordinates":[85.0237781,27.9816991]},"properties":{"name":"Chhe Dup Baudha Gumba","tradition":"buddhist","country_code":"np"}},{"type":"Feature","geometry":{"type":"Point","coordinates":[85.641026,27.0697515]},"properties":{"name":"Gumba","tradition":"buddhist","country_code":"np"}},{"type":"Feature","geometry":{"type":"Point","coordinates":[84.1046923,28.358021]},"properties":{"name":"Kushum Chewaling Gumba","tradition":"buddhist","country_code":"np"}},{"type":"Feature","geometry":{"type":"Point","coordinates":[83.8214122,28.260348]},"properties":{"name":"Jhakrithan","tradition":"buddhist","country_code":"np"}},{"type":"Feature","geometry":{"type":"Point","coordinates":[83.8214189,28.2602653]},"properties":{"name":"Barahathan","tradition":"buddhist","country_code":"np"}},{"type":"Feature","geometry":{"type":"Point","coordinates":[83.1266946,29.0367895]},"properties":{"name":"prayer flag and stone","tradition":"buddhist","country_code":"np"}},{"type":"Feature","geometry":{"type":"Point","coordinates":[81.6251678,30.0577378]},"properties":{"name":"Madu","tradition":"buddhist","country_code":"np"}},{"type":"Feature","geometry":{"type":"Point","coordinates":[81.6141314,30.0602357]},"properties":{"name":"Chaitya","tradition":"buddhist","country_code":"np"}},{"type":"Feature","geometry":{"type":"Point","coordinates":[81.4342985,30.1135253]},"properties":{"name":"Lasha, Madu","tradition":"buddhist","country_code":"np"}},{"type":"Feature","geometry":{"type":"Point","coordinates":[83.8193992,28.2701732]},"properties":{"name":"Panchol","tradition":"buddhist","country_code":"np"}},{"type":"Feature","geometry":{"type":"Point","coordinates":[83.8152753,28.2693818]},"properties":{"name":"Bhayerthan","tradition":"buddhist","country_code":"np"}},{"type":"Feature","geometry":{"type":"Point","coordinates":[83.8152753,28.269246]},"properties":{"name":"Jhakrithan","tradition":"buddhist","country_code":"np"}},{"type":"Feature","geometry":{"type":"Point","coordinates":[83.812758,28.268881]},"properties":{"name":"Lato Jhakri","tradition":"buddhist","country_code":"np"}},{"type":"Feature","geometry":{"type":"Point","coordinates":[83.8227104,28.2663385]},"properties":{"name":"Siltu Than","tradition":"buddhist","country_code":"np"}},{"type":"Feature","geometry":{"type":"Point","coordinates":[83.8227063,28.2631753]},"properties":{"name":"Bhayerthan","tradition":"buddhist","country_code":"np"}},{"type":"Feature","geometry":{"type":"Point","coordinates":[81.5136608,30.2233789]},"properties":{"name":"Halji Gumba","tradition":"buddhist","country_code":"np"}},{"type":"Feature","geometry":{"type":"Point","coordinates":[81.5151335,30.2255152]},"properties":{"name":"Madu, Lhasa","tradition":"buddhist","country_code":"np"}},{"type":"Feature","geometry":{"type":"Point","coordinates":[81.758438,30.007136]},"properties":{"name":"Chaitya","tradition":"buddhist","country_code":"np"}},{"type":"Feature","geometry":{"type":"Point","coordinates":[81.609835,30.0311268]},"properties":{"name":"Yalbang Gumba","tradition":"buddhist","country_code":"np"}},{"type":"Feature","geometry":{"type":"Point","coordinates":[81.6170854,30.0089519]},"properties":{"name":"Chala Gumba","tradition":"buddhist","country_code":"np"}},{"type":"Feature","geometry":{"type":"Point","coordinates":[81.768619,30.0168772]},"properties":{"name":"Dinga Gumba","tradition":"buddhist","country_code":"np"}},{"type":"Feature","geometry":{"type":"Point","coordinates":[83.8262911,28.2671577]},"properties":{"name":"Panchol","tradition":"buddhist","country_code":"np"}},{"type":"Feature","geometry":{"type":"Point","coordinates":[81.9841808,29.7200409]},"properties":{"name":"Guar Maandu","tradition":"buddhist","country_code":"np"}},{"type":"Feature","geometry":{"type":"Point","coordinates":[81.9863373,29.7192279]},"properties":{"name":"Shawalpuro temple","tradition":"buddhist","country_code":"np"}},{"type":"Feature","geometry":{"type":"Point","coordinates":[81.9100611,29.8106589]},"properties":{"name":"Chhyagi Gumba","tradition":"buddhist","country_code":"np"}},{"type":"Feature","geometry":{"type":"Point","coordinates":[81.756765,29.6363922]},"properties":{"name":"Naula Dev Maandu","tradition":"buddhist","country_code":"np"}},{"type":"Feature","geometry":{"type":"Point","coordinates":[81.7608095,29.6637158]},"properties":{"name":"Masta Maandu","tradition":"buddhist","country_code":"np"}},{"type":"Feature","geometry":{"type":"Point","coordinates":[81.7609325,29.652674]},"properties":{"name":"kalika Maandu","tradition":"buddhist","country_code":"np"}},{"type":"Feature","geometry":{"type":"Point","coordinates":[81.7595373,29.6452393]},"properties":{"name":"Gura Maandu","tradition":"buddhist","country_code":"np"}},{"type":"Feature","geometry":{"type":"Point","coordinates":[81.8153042,29.6698691]},"properties":{"name":"Bar Maandu","tradition":"buddhist","country_code":"np"}},{"type":"Feature","geometry":{"type":"Point","coordinates":[81.8289392,29.7168]},"properties":{"name":"Kalika Maandu","tradition":"buddhist","country_code":"np"}},{"type":"Feature","geometry":{"type":"Point","coordinates":[81.837206,29.7184637]},"properties":{"name":"Palsa Maandu","tradition":"buddhist","country_code":"np"}},{"type":"Feature","geometry":{"type":"Point","coordinates":[81.8385539,29.7198669]},"properties":{"name":"Bhawanin Maandu","tradition":"buddhist","country_code":"np"}},{"type":"Feature","geometry":{"type":"Point","coordinates":[81.7768238,29.635771]},"properties":{"name":"Thapla Masta Maandu","tradition":"buddhist","country_code":"np"}},{"type":"Feature","geometry":{"type":"Point","coordinates":[81.7788202,29.6395307]},"properties":{"name":"Baddo Kale Maandu","tradition":"buddhist","country_code":"np"}},{"type":"Feature","geometry":{"type":"Point","coordinates":[81.7793633,29.6395132]},"properties":{"name":"Mahalinge Maandu","tradition":"buddhist","country_code":"np"}},{"type":"Feature","geometry":{"type":"Point","coordinates":[81.9733145,29.8042853]},"properties":{"name":"Madu","tradition":"buddhist","country_code":"np"}},{"type":"Feature","geometry":{"type":"Point","coordinates":[83.8096119,28.3768529]},"properties":{"name":"Naagyur Dorje Sangngak Choelig Monastery","tradition":"buddhist","addr:city":"Annapurna Rural Mun 11","country_code":"np"}},{"type":"Feature","geometry":{"type":"Point","coordinates":[83.8172413,28.423519]},"properties":{"name":"Churup Baraha","tradition":"buddhist","country_code":"np"}},{"type":"Feature","geometry":{"type":"Point","coordinates":[83.8212509,28.4248078]},"properties":{"name":"Kul Baraha Mandir","tradition":"buddhist","country_code":"np"}},{"type":"Feature","geometry":{"type":"Point","coordinates":[86.7279977,27.6933934]},"properties":{"name":"Mane temple","tradition":"buddhist","country_code":"np"}},{"type":"Feature","geometry":{"type":"Point","coordinates":[84.4678742,28.6107445]},"properties":{"name":"Stupa","tradition":"buddhist","country_code":"np"}},{"type":"Feature","geometry":{"type":"Point","coordinates":[84.0409694,28.6588201]},"properties":{"name:en":"Braka Gompa","tradition":"buddhist","country_code":"np"}},{"type":"Feature","geometry":{"type":"Point","coordinates":[85.5221386,27.6318125]},"properties":{"name":"  क्वबाहाः ","name:en":"Kobaha","tradition":"buddhist","country_code":"np"}},{"type":"Feature","geometry":{"type":"Point","coordinates":[83.205487,27.6889336]},"properties":{"name":"Gumba,Pipara","tradition":"buddhist","country_code":"np"}},{"type":"Feature","geometry":{"type":"Point","coordinates":[85.8223354,27.9713098]},"properties":{"name":"Gumba","tradition":"buddhist","country_code":"np"}},{"type":"Feature","geometry":{"type":"Point","coordinates":[83.6878804,28.0131934]},"properties":{"name":"Chhanmru Khoiwo Chaapa","tradition":"buddhist","country_code":"np"}},{"type":"Feature","geometry":{"type":"Point","coordinates":[83.7904648,27.9503454]},"properties":{"name":"Bankatta Gumba,(Tamu Failu Khoibo Dhinu)","tradition":"buddhist","country_code":"np"}},{"type":"Feature","geometry":{"type":"Point","coordinates":[83.8325152,28.009954]},"properties":{"name":"Maghakot Khoiwo (Gumba)","tradition":"buddhist","country_code":"np"}},{"type":"Feature","geometry":{"type":"Point","coordinates":[83.6809791,27.9950717]},"properties":{"name":"Lhon Khoiwo Dhi, seu kho dhi (kulayan ghar)","tradition":"buddhist","country_code":"np"}},{"type":"Feature","geometry":{"type":"Point","coordinates":[83.6804433,27.98986]},"properties":{"name":"Kot Ghar Ghurunkha","tradition":"buddhist","country_code":"np"}},{"type":"Feature","geometry":{"type":"Point","coordinates":[83.6893791,28.01256]},"properties":{"name":"Fewali Phachyu Pariwar Khe-Ma Khoiwo (Chhapa)","tradition":"buddhist","country_code":"np"}},{"type":"Feature","geometry":{"type":"Point","coordinates":[83.807295,27.9786447]},"properties":{"name":"Pitlek Tamu Khoiwodhin","tradition":"buddhist","country_code":"np"}},{"type":"Feature","geometry":{"type":"Point","coordinates":[83.0188429,28.8974009]},"properties":{"name":"Ngahyur Chhoejung Palridechen Chhoeling Monastery","tradition":"buddhist","country_code":"np"}},{"type":"Feature","geometry":{"type":"Point","coordinates":[83.2900739,29.3722994]},"properties":{"name":"Thukchhe chhorten","tradition":"buddhist","country_code":"np"}},{"type":"Feature","geometry":{"type":"Point","coordinates":[82.8127051,28.9198225]},"properties":{"name":"Lama thara deuta than","tradition":"buddhist","country_code":"np"}},{"type":"Feature","geometry":{"type":"Point","coordinates":[83.1884662,29.1325505]},"properties":{"name":"Ribo Bumpa Gompa","tradition":"buddhist","country_code":"np"}},{"type":"Feature","geometry":{"type":"Point","coordinates":[82.7932164,29.043726]},"properties":{"name":"Chaitya","tradition":"buddhist","country_code":"np"}},{"type":"Feature","geometry":{"type":"Point","coordinates":[82.8403305,28.9983887]},"properties":{"name":"Khoplung Chaitya","tradition":"buddhist","country_code":"np"}},{"type":"Feature","geometry":{"type":"Point","coordinates":[82.8724292,28.9754029]},"properties":{"name":"Chaitya","tradition":"buddhist","country_code":"np"}},{"type":"Feature","geometry":{"type":"Point","coordinates":[82.8513826,28.9972363]},"properties":{"name":"Chaitya","tradition":"buddhist","country_code":"np"}},{"type":"Feature","geometry":{"type":"Point","coordinates":[82.8533486,28.9985582]},"properties":{"name":"Gumba","tradition":"buddhist","country_code":"np"}},{"type":"Feature","geometry":{"type":"Point","coordinates":[82.8520474,28.9998831]},"properties":{"name":"Chaitya","tradition":"buddhist","country_code":"np"}},{"type":"Feature","geometry":{"type":"Point","coordinates":[83.4138156,29.0913825]},"properties":{"name":"Sachin Gumba","tradition":"buddhist","country_code":"np"}},{"type":"Feature","geometry":{"type":"Point","coordinates":[83.4099278,29.0908774]},"properties":{"name":"Bon Gumba","tradition":"buddhist","country_code":"np"}},{"type":"Feature","geometry":{"type":"Point","coordinates":[82.5204369,29.1331505]},"properties":{"name:en":"Samling Gonpa","tradition":"buddhist","addr:street":"Churikot-JhyaKot","country_code":"np"}},{"type":"Feature","geometry":{"type":"Point","coordinates":[86.172533,28.1183797]},"properties":{"name":"Milarepa Cave-Footprint(rechen)","tradition":"buddhist","denomination":"drikung_kagyu","country_code":"np"}},{"type":"Feature","geometry":{"type":"Point","coordinates":[84.50418,27.6594578]},"properties":{"name":"Buddha Temple","tradition":"buddhist","country_code":"np"}},{"type":"Feature","geometry":{"type":"Point","coordinates":[85.3335755,27.6730432]},"properties":{"name":"बालकुमारी बुद्धको मूर्ति","name:en":"Balkumari Buddha Statue","tradition":"buddhist","country_code":"np"}},{"type":"Feature","geometry":{"type":"Point","coordinates":[81.5565375,28.1024002]},"properties":{"name":"pragya baudha bihar gumba","tradition":"buddhist","addr:city":"khajura-RM","country_code":"np"}},{"type":"Feature","geometry":{"type":"Point","coordinates":[82.6635279,27.8558212]},"properties":{"name":"बुद्ध गुम्बा","tradition":"buddhist","addr:street":"कोहोलुवा","addr:housenumber":"राप्ती ८","addr:city":"राप्ती गाउँपालिका ८ दाङ","country_code":"np"}},{"type":"Feature","geometry":{"type":"Point","coordinates":[84.1544882,28.1573813]},"properties":{"name":"Kanxa Lama Smriti Park","tradition":"buddhist","country_code":"np","phone":"9816106845"}},{"type":"Feature","geometry":{"type":"Point","coordinates":[84.1981527,28.1207476]},"properties":{"name":"Gaurav Tamu samaj","tradition":"buddhist","country_code":"np","phone":"9824106355"}},{"type":"Feature","geometry":{"type":"Point","coordinates":[84.8495766,27.5252566]},"properties":{"name":"Gumba","tradition":"buddhist","country_code":"np"}},{"type":"Feature","geometry":{"type":"Point","coordinates":[84.8492388,27.5240173]},"properties":{"name":"Pema Geheling Gumba","tradition":"buddhist","country_code":"np"}},{"type":"Feature","geometry":{"type":"Point","coordinates":[85.6990616,27.534966]},"properties":{"name":"लास्मोट छेदेलिङ गुम्बा","tradition":"buddhist","country_code":"np"}},{"type":"Feature","geometry":{"type":"Point","coordinates":[85.7090238,27.5293436]},"properties":{"name":"Gumba","tradition":"buddhist","country_code":"np"}},{"type":"Feature","geometry":{"type":"Point","coordinates":[85.580261,27.5696997]},"properties":{"name":"पञ्चा बुद्ध स्तूपा","name:en":"Pancha Buddha Stupa","tradition":"buddhist","country_code":"np"}},{"type":"Feature","geometry":{"type":"Point","coordinates":[85.5802309,27.5699339]},"properties":{"name":"निङ डुई चेन्पो लुही जेम्सा","name:en":"Ning Dui Chenpo Luhi Jemsa","tradition":"buddhist","country_code":"np"}},{"type":"Feature","geometry":{"type":"Point","coordinates":[85.5805833,27.5701256]},"properties":{"name":"श्री नमोबुद्ध ल ढोका ","name:en":"Shree Namobuddha L Dhoka 51 Vanjyang","tradition":"buddhist","country_code":"np"}},{"type":"Feature","geometry":{"type":"Point","coordinates":[85.5815387,27.5712157]},"properties":{"name":"बोधिसत्व जिबन दान दीको मन्दिर","name:en":"Bodhisattole Jiban Dan Diyeko Mandir","tradition":"buddhist","country_code":"np"}},{"type":"Feature","geometry":{"type":"Point","coordinates":[85.5840964,27.5709736]},"properties":{"name":"नमोबुद्ध","name:en":"Namobuddha","tradition":"buddhist","country_code":"np"}},{"type":"Feature","geometry":{"type":"Point","coordinates":[85.6474014,27.5554954]},"properties":{"name":"Gumba","tradition":"buddhist","country_code":"np"}},{"type":"Feature","geometry":{"type":"Point","coordinates":[85.5988456,27.5855209]},"properties":{"name":"सिमलचौर गुम्बा","name:en":"Simalchaur Gumba","tradition":"buddhist","country_code":"np"}},{"type":"Feature","geometry":{"type":"Point","coordinates":[85.6116955,27.5125354]},"properties":{"name":"Pipaltar ghyang","tradition":"buddhist","country_code":"np"}},{"type":"Feature","geometry":{"type":"Point","coordinates":[85.60281,27.5453733]},"properties":{"name":"Temple","tradition":"buddhist","country_code":"np"}},{"type":"Feature","geometry":{"type":"Point","coordinates":[85.61295,27.5572583]},"properties":{"name":"घाट","name:en":"Ghat","tradition":"buddhist","country_code":"np"}},{"type":"Feature","geometry":{"type":"Point","coordinates":[85.5605749,27.5480549]},"properties":{"name":"चिहान डाडा","name:en":"Chihan Danda","tradition":"buddhist","country_code":"np"}},{"type":"Feature","geometry":{"type":"Point","coordinates":[85.608665,27.5148817]},"properties":{"name":"Rembo chhe buddha murti","tradition":"buddhist","country_code":"np"}},{"type":"Feature","geometry":{"type":"Point","coordinates":[85.6072704,27.5146804]},"properties":{"name":"Buddha murti","tradition":"buddhist","country_code":"np"}},{"type":"Feature","geometry":{"type":"Point","coordinates":[85.61068,27.5123467]},"properties":{"name":"Pipaltar buddha gumba","tradition":"buddhist","country_code":"np"}},{"type":"Feature","geometry":{"type":"Point","coordinates":[85.6258317,27.53482]},"properties":{"name":"बुद्ध गुम्बा","name:en":"Buddha gumba","tradition":"buddhist","country_code":"np"}},{"type":"Feature","geometry":{"type":"Point","coordinates":[85.6626961,27.5375768]},"properties":{"name":"mahne gumba","tradition":"buddhist","country_code":"np"}},{"type":"Feature","geometry":{"type":"Point","coordinates":[85.7041876,27.5538182]},"properties":{"name":"gumba","tradition":"buddhist","country_code":"np"}},{"type":"Feature","geometry":{"type":"Point","coordinates":[85.7041516,27.5538395]},"properties":{"name":"Hinjodorje ra ra rani ko salik","tradition":"buddhist","country_code":"np"}},{"type":"Feature","geometry":{"type":"Point","coordinates":[85.3116435,27.7087643]},"properties":{"name":"बुद्ध मन्दिर","name:en":"Buddha Temple","tradition":"buddhist","country_code":"np"}},{"type":"Feature","geometry":{"type":"Point","coordinates":[84.559273,27.8531938]},"properties":{"name":"Gumba","tradition":"buddhist","country_code":"np"}},{"type":"Feature","geometry":{"type":"Point","coordinates":[85.5404123,27.5637157]},"properties":{"name":"उर्जेन गुरु छोलिङ गुम्बा","name:en":"Urgen Guru Chholing Gumba","tradition":"buddhist","country_code":"np"}},{"type":"Feature","geometry":{"type":"Point","coordinates":[84.3670565,27.6200019]},"properties":{"name":"Bhuddhist Gumba","tradition":"buddhist","country_code":"np"}},{"type":"Feature","geometry":{"type":"Point","coordinates":[84.0531054,28.6766762]},"properties":{"name:en":"Stupa","tradition":"buddhist","country_code":"np"}},{"type":"Feature","geometry":{"type":"Point","coordinates":[85.6413416,27.8445884]},"properties":{"name":"Statue of Avalokiteshvara (Chenrizig)","tradition":"buddhist","country_code":"np"}},{"type":"Feature","geometry":{"type":"Point","coordinates":[85.3184845,27.6185608]},"properties":{"name":"Veluwanarama Vihar","tradition":"buddhist","addr:street":"Acharya Marga","addr:city":"Theco","addr:postcode":"44700","country_code":"np"}},{"type":"Feature","geometry":{"type":"Point","coordinates":[85.3248216,27.6066394]},"properties":{"name":"Jyoti Bihar","tradition":"buddhist","addr:street":"Satdobato-Tikabhairab Road","addr:housenumber":"3","addr:city":"Chapagaun","country_code":"np"}},{"type":"Feature","geometry":{"type":"Point","coordinates":[81.5956062,28.9762731]},"properties":{"name":"Bouddha Gumba Chapagau","tradition":"buddhist","country_code":"np"}},{"type":"Feature","geometry":{"type":"Point","coordinates":[81.5686966,28.9567333]},"properties":{"name":"Bouddha Gumba","tradition":"buddhist","country_code":"np"}},{"type":"Feature","geometry":{"type":"Point","coordinates":[81.5469657,28.9339313]},"properties":{"name":"Khapparthan Mandir","tradition":"buddhist","country_code":"np"}},{"type":"Feature","geometry":{"type":"Point","coordinates":[84.7410314,28.5619969]},"properties":{"name":"Mani Dungyur Gumpa","tradition":"buddhist","country_code":"np"}},{"type":"Feature","geometry":{"type":"Point","coordinates":[85.3664821,27.7278288]},"properties":{"name":"चुवार मठ (भित्र मिलरेपाको मूर्ति)","name:en":"Chuwar Monastery (Milarepa statue inside)","tradition":"buddhist","country_code":"np"}},{"type":"Feature","geometry":{"type":"Point","coordinates":[86.9299319,26.7385196]},"properties":{"name":"Gumba","tradition":"buddhist","country_code":"np"}},{"type":"Feature","geometry":{"type":"Point","coordinates":[87.696309,26.6713312]},"properties":{"name":"Budha Ghumba","tradition":"buddhist","country_code":"np","phone":"9816994513"}},{"type":"Feature","geometry":{"type":"Point","coordinates":[87.6781,26.6424343]},"properties":{"name":"Namgyal Buddhist Gumba","tradition":"buddhist","country_code":"np","phone":"9816925905"}},{"type":"Feature","geometry":{"type":"Point","coordinates":[84.4838817,27.5823689]},"properties":{"name":"Tasi Urgen Gumba","tradition":"buddhist","country_code":"np"}},{"type":"Feature","geometry":{"type":"Point","coordinates":[84.5056121,27.6597478]},"properties":{"name":"Sange chhoiling Gumba","tradition":"buddhist","country_code":"np"}},{"type":"Feature","geometry":{"type":"Point","coordinates":[84.4941053,27.6436866]},"properties":{"name":"Shree Aatma Shanti Boudhha Stupa Gumba","tradition":"buddhist","country_code":"np"}},{"type":"Feature","geometry":{"type":"Point","coordinates":[84.5036002,27.6476989]},"properties":{"name":"Chyasang gumba","tradition":"buddhist","country_code":"np"}},{"type":"Feature","geometry":{"type":"Point","coordinates":[84.5322603,27.6373424]},"properties":{"name":"Bouddha Gumba","tradition":"buddhist","country_code":"np"}},{"type":"Feature","geometry":{"type":"Point","coordinates":[84.5412459,27.6584855]},"properties":{"name":"Siwalaya Mandir","tradition":"buddhist","country_code":"np"}},{"type":"Feature","geometry":{"type":"Point","coordinates":[84.5329727,27.6687269]},"properties":{"name":"Dokun Tharpaling Gumba","tradition":"buddhist","country_code":"np"}},{"type":"Feature","geometry":{"type":"Point","coordinates":[85.5507128,27.8276041]},"properties":{"name":"Aambechaur stupa","tradition":"buddhist","country_code":"np"}},{"type":"Feature","geometry":{"type":"Point","coordinates":[86.2644656,27.6331739]},"properties":{"name":"Guru Chhoke Chechuling Gumba","tradition":"buddhist","country_code":"np"}},{"type":"Feature","geometry":{"type":"Point","coordinates":[86.18554,27.6172131]},"properties":{"name":"Urgeling Gumba","tradition":"buddhist","country_code":"np"}},{"type":"Feature","geometry":{"type":"Point","coordinates":[87.2629568,26.4520421]},"properties":{"name":"Buddha Bihar Mandir","tradition":"buddhist","country_code":"np"}},{"type":"Feature","geometry":{"type":"Point","coordinates":[87.3143467,27.0349081]},"properties":{"name":"Choling Gumba","tradition":"buddhist","country_code":"np"}},{"type":"Feature","geometry":{"type":"Point","coordinates":[87.3133425,27.0316857]},"properties":{"name":"Bich Gumba","tradition":"buddhist","country_code":"np"}},{"type":"Feature","geometry":{"type":"Point","coordinates":[86.00722,27.68198]},"properties":{"name":"Furwa Larkhang Gumba","tradition":"buddhist","country_code":"np"}},{"type":"Feature","geometry":{"type":"Point","coordinates":[86.0029855,27.6894318]},"properties":{"name":"Mapchi Tamang Gumba","tradition":"buddhist","country_code":"np"}},{"type":"Feature","geometry":{"type":"Point","coordinates":[86.015357,27.676499]},"properties":{"name":"Maney","tradition":"buddhist","country_code":"np"}},{"type":"Feature","geometry":{"type":"Point","coordinates":[86.085246,27.678894]},"properties":{"name":"Sengkucha Stupa","tradition":"buddhist","country_code":"np"}},{"type":"Feature","geometry":{"type":"Point","coordinates":[86.0287,27.6731]},"properties":{"name":"Chothang Gumba","tradition":"buddhist","country_code":"np"}},{"type":"Feature","geometry":{"type":"Point","coordinates":[86.051,27.6581]},"properties":{"name":"Charighyang Gumba","tradition":"buddhist","country_code":"np"}},{"type":"Feature","geometry":{"type":"Point","coordinates":[86.0486,27.6621]},"properties":{"name":"Manedada Gumba","tradition":"buddhist","country_code":"np"}},{"type":"Feature","geometry":{"type":"Point","coordinates":[85.954541,27.7168751]},"properties":{"name":"Buddha Bhyecholing Gumba","tradition":"buddhist","country_code":"np"}},{"type":"Feature","geometry":{"type":"Point","coordinates":[85.7463655,27.8087727]},"properties":{"name":"Ningma Gumba","tradition":"buddhist","country_code":"np"}},{"type":"Feature","geometry":{"type":"Point","coordinates":[85.7038076,27.6925459]},"properties":{"name":"Chhimitasi Chiling Gumba","tradition":"buddhist","country_code":"np"}},{"type":"Feature","geometry":{"type":"Point","coordinates":[85.7159144,27.6985702]},"properties":{"name":"Nawa Buddha Bihar Gumba","tradition":"buddhist","country_code":"np"}},{"type":"Feature","geometry":{"type":"Point","coordinates":[85.7370177,27.7781022]},"properties":{"name":"Tharsang D Nigma Chilling Gumba","tradition":"buddhist","country_code":"np"}},{"type":"Feature","geometry":{"type":"Point","coordinates":[83.4657486,27.5054023]},"properties":{"name":"शान्ति बुद्ध गुम्बा","name:en":"Shanti Buddha Gumba","tradition":"buddhist","country_code":"np"}},{"type":"Feature","geometry":{"type":"Point","coordinates":[85.3257568,27.6719396]},"properties":{"name":"शाक्यमुनी बुद्ध","name:en":"Shakyamuni Buddha","tradition":"buddhist","country_code":"np"}},{"type":"Feature","geometry":{"type":"Point","coordinates":[85.3404975,28.1106721]},"properties":{"name":"Buddhist Temple","tradition":"buddhist","country_code":"np"}},{"type":"Feature","geometry":{"type":"Point","coordinates":[85.4841994,27.9306364]},"properties":{"name":"Stupa","tradition":"buddhist","country_code":"np"}},{"type":"Feature","geometry":{"type":"Point","coordinates":[84.6374936,28.5895292]},"properties":{"name":"Guru Rinpoche Statue","tradition":"buddhist","country_code":"np"}},{"type":"Feature","geometry":{"type":"Point","coordinates":[84.6572545,28.5675374]},"properties":{"name":"Short Mani wall","tradition":"buddhist","country_code":"np"}},{"type":"Feature","geometry":{"type":"Point","coordinates":[84.6406985,28.5573256]},"properties":{"name":"Stone Stupa","tradition":"buddhist","country_code":"np"}},{"type":"Feature","geometry":{"type":"Point","coordinates":[84.6553598,28.5656728]},"properties":{"name":"Small Stone Stupa","tradition":"buddhist","country_code":"np"}},{"type":"Feature","geometry":{"type":"Point","coordinates":[83.8638295,28.8207961]},"properties":{"name":"Muktinath Pond","tradition":"buddhist","country_code":"np"}},{"type":"Feature","geometry":{"type":"Point","coordinates":[85.4918578,27.6218277]},"properties":{"name":"शेराब छोलिङ गुम्बा","name:en":"Sherab Chholing Gumba","tradition":"buddhist","addr:street":"Bansdol","country_code":"np"}},{"type":"Feature","geometry":{"type":"Point","coordinates":[85.4917131,27.6217633]},"properties":{"name":"जियांगचुट सोतियान","name:en":"Jyangchut Sotyan","tradition":"buddhist","addr:street":"Bansdol","country_code":"np"}},{"type":"Feature","geometry":{"type":"Point","coordinates":[85.5151142,27.6320579]},"properties":{"name":"बुद्ध जयन्ती समहारोहा समिति","name:en":"Buddha Jayanthi Samaharoha Samiti","tradition":"buddhist","country_code":"np"}},{"type":"Feature","geometry":{"type":"Point","coordinates":[85.5209553,27.6328377]},"properties":{"name":"स्तूप","name:en":"Stupa","tradition":"buddhist","country_code":"np"}},{"type":"Feature","geometry":{"type":"Point","coordinates":[85.527322,27.6342012]},"properties":{"name":"बुद्ध बिहार","name:en":"Buddha Bihar","tradition":"buddhist","addr:street":"Ghokechaur","country_code":"np"}},{"type":"Feature","geometry":{"type":"Point","coordinates":[85.271582,27.8128743]},"properties":{"name":"Stupa","tradition":"buddhist","country_code":"np"}},{"type":"Feature","geometry":{"type":"Point","coordinates":[84.871092,27.5424198]},"properties":{"name":"साङ्गे च्योलिङ गुम्बा","name:en":"Sange Chhyoling Gumba","tradition":"buddhist","country_code":"np"}},{"type":"Feature","geometry":{"type":"Point","coordinates":[84.1011584,28.6489465]},"properties":{"name":"prayer wheel","tradition":"buddhist","country_code":"np"}},{"type":"Feature","geometry":{"type":"Point","coordinates":[83.7453205,28.0214856]},"properties":{"name":"Statue of Buddha","tradition":"buddhist","country_code":"np"}},{"type":"Feature","geometry":{"type":"Point","coordinates":[85.462574,28.019494]},"properties":{"name":"कसिर जङ्चुब चोर्तेन गुम्बा","name:en":"Kashir jangchub chorten gumba","tradition":"buddhist","country_code":"np"}},{"type":"Feature","geometry":{"type":"Point","coordinates":[85.438972,27.964404]},"properties":{"name":"बुद्ध स्तुप","name:en":"Buddha stupa","tradition":"buddhist","country_code":"np"}},{"type":"Feature","geometry":{"type":"Point","coordinates":[85.412245,27.970172]},"properties":{"name":"बुद्ध स्तुप","name:en":"Buddha stupa","tradition":"buddhist","country_code":"np"}},{"type":"Feature","geometry":{"type":"Point","coordinates":[85.451488,27.991605]},"properties":{"name":"उर्केन्छोर्लिङ् गुम्बा","name:en":"Urkenchhorling gumba","tradition":"buddhist","country_code":"np"}},{"type":"Feature","geometry":{"type":"Point","coordinates":[85.418033,27.949235]},"properties":{"name":"तासिसाम्लिङ् गुम्बा","name:en":"Tasishamling Gumba","tradition":"buddhist","country_code":"np"}},{"type":"Feature","geometry":{"type":"Point","coordinates":[85.392528,27.90277]},"properties":{"name":"पुर्काङ् गुम्बा","name:en":"Purkang Gumba","tradition":"buddhist","country_code":"np"}},{"type":"Feature","geometry":{"type":"Point","coordinates":[85.385779,27.908885]},"properties":{"name":"काल्टेन छेस्यो गुम्बा","name:en":"Kalten Chhesyo Gumba","tradition":"buddhist","country_code":"np"}},{"type":"Feature","geometry":{"type":"Point","coordinates":[85.389445,27.898745]},"properties":{"name":"तेमवाङ् छेक्याप गुम्बा","name:en":"Temwang Chhekyap Gumba","tradition":"buddhist","country_code":"np"}},{"type":"Feature","geometry":{"type":"Point","coordinates":[85.2904662,27.7148428]},"properties":{"name":"8. Maamaki Tara","tradition":"buddhist","country_code":"np"}},{"type":"Feature","geometry":{"type":"Point","coordinates":[85.2902624,27.7149301]},"properties":{"name":"1. Amitabha Buddha","tradition":"buddhist","country_code":"np"}},{"type":"Feature","geometry":{"type":"Point","coordinates":[85.2905159,27.7149085]},"properties":{"name":"3. Akshyabha Buddha","tradition":"buddhist","country_code":"np"}},{"type":"Feature","geometry":{"type":"Point","coordinates":[85.2904018,27.7150456]},"properties":{"name":"2. Amoghashidhi Buddha","tradition":"buddhist","country_code":"np"}},{"type":"Feature","geometry":{"type":"Point","coordinates":[85.2903659,27.714819]},"properties":{"name":"5. Ratnasambhava Buddha","tradition":"buddhist","country_code":"np"}},{"type":"Feature","geometry":{"type":"Point","coordinates":[85.2902999,27.7148544]},"properties":{"name":"9. Padhmani Tara","tradition":"buddhist","country_code":"np"}},{"type":"Feature","geometry":{"type":"Point","coordinates":[85.2902999,27.7150095]},"properties":{"name":"6. Aarya Tara","tradition":"buddhist","country_code":"np"}},{"type":"Feature","geometry":{"type":"Point","coordinates":[85.2904898,27.7149958]},"properties":{"name":"7. Saptalochani Tara","tradition":"buddhist","country_code":"np"}},{"type":"Feature","geometry":{"type":"Point","coordinates":[85.2905061,27.7148847]},"properties":{"name":"10. Vajradhati  Tara","tradition":"buddhist","country_code":"np"}},{"type":"Feature","geometry":{"type":"Point","coordinates":[85.2905167,27.7149482]},"properties":{"name":"4. Virochana Buddha","tradition":"buddhist","country_code":"np"}},{"type":"Feature","geometry":{"type":"Point","coordinates":[85.381889,27.954627]},"properties":{"name":"पेमा खासोरलिङ् गुम्बा","name:en":"Pema Khashworling Gumba","tradition":"buddhist","country_code":"np"}},{"type":"Feature","geometry":{"type":"Point","coordinates":[85.391824,27.970326]},"properties":{"name":"तासी छेलिङ् गुम्बा","name:en":"Tasi Chheling Gumba","tradition":"buddhist","country_code":"np"}},{"type":"Feature","geometry":{"type":"Point","coordinates":[83.6708998,28.3159279]},"properties":{"name":"temple","tradition":"buddhist","country_code":"np"}},{"type":"Feature","geometry":{"type":"Point","coordinates":[83.9560887,29.1827664]},"properties":{"name":"Thugchen Gumba","tradition":"buddhist","country_code":"np"}},{"type":"Feature","geometry":{"type":"Point","coordinates":[85.4342522,27.6750364]},"properties":{"name":"Dipankar Vihar","tradition":"buddhist","addr:city":"Bhaktapur","country_code":"np"}},{"type":"Feature","geometry":{"type":"Point","coordinates":[85.4953881,27.7537432]},"properties":{"name":"Buddhist monastery","tradition":"buddhist","country_code":"np"}},{"type":"Feature","geometry":{"type":"Point","coordinates":[85.4960962,27.7541895]},"properties":{"name":"Drenpa Namkha Buddha Statue","tradition":"buddhist","country_code":"np"}},{"type":"Feature","geometry":{"type":"Point","coordinates":[83.7330381,28.4205545]},"properties":{"name":"Prayer Mill","tradition":"buddhist","country_code":"np"}},{"type":"Feature","geometry":{"type":"Point","coordinates":[84.3460293,28.1985768]},"properties":{"name":"Purankot Gadi Stupa","tradition":"buddhist","addr:street":"Besishahar-04 Purankot, Lamjung","country_code":"np"}},{"type":"Feature","geometry":{"type":"Point","coordinates":[84.041743,28.6593291]},"properties":{"name":"chorten","tradition":"buddhist","country_code":"np"}},{"type":"Feature","geometry":{"type":"Point","coordinates":[84.0510626,28.6587461]},"properties":{"name":"Stupa","tradition":"buddhist","country_code":"np"}},{"type":"Feature","geometry":{"type":"Point","coordinates":[84.0514811,28.6537849]},"properties":{"name":"Stone Stupa (3600m)","tradition":"buddhist","country_code":"np"}},{"type":"Feature","geometry":{"type":"Point","coordinates":[84.0515795,28.6531665]},"properties":{"name":"Stupa","name:en":"Stupa","tradition":"buddhist","country_code":"np"}},{"type":"Feature","geometry":{"type":"Point","coordinates":[83.9726226,28.6702042]},"properties":{"name":"Stupa","name:en":"Stupa","tradition":"buddhist","country_code":"np"}},{"type":"Feature","geometry":{"type":"Point","coordinates":[83.957942,28.6763567]},"properties":{"name":"Prayer Wall","tradition":"buddhist","country_code":"np"}},{"type":"Feature","geometry":{"type":"Point","coordinates":[83.9562851,28.6776783]},"properties":{"name":"Shree Kharka Gompa","tradition":"buddhist","country_code":"np"}},{"type":"Feature","geometry":{"type":"Point","coordinates":[80.4503556,28.6541725]},"properties":{"name":"Kanchan ksho Ghumba","tradition":"buddhist","country_code":"np"}},{"type":"Feature","geometry":{"type":"Point","coordinates":[84.9600461,27.0392269]},"properties":{"name":"Buddha Mandir","tradition":"buddhist","country_code":"np"}},{"type":"Feature","geometry":{"type":"Point","coordinates":[83.2515138,28.2446385]},"properties":{"name":"Buddha Gumba","tradition":"buddhist","country_code":"np"}},{"type":"Feature","geometry":{"type":"Point","coordinates":[84.9942537,28.4762008]},"properties":{"name":"Stupa","tradition":"buddhist","country_code":"np"}},{"type":"Feature","geometry":{"type":"Point","coordinates":[85.3585835,27.7199767]},"properties":{"name":"Dudjom Rinpoche Gompa","tradition":"buddhist","country_code":"np"}},{"type":"Feature","geometry":{"type":"Point","coordinates":[84.2282013,28.6637788]},"properties":{"name":"Sartek Thrangu Gompa","tradition":"buddhist","country_code":"np"}},{"type":"Feature","geometry":{"type":"Point","coordinates":[85.3498943,27.7804198]},"properties":{"name":"Namkha Khyung Dzong Rigzin Choling Monastery","tradition":"buddhist","country_code":"np"}},{"type":"Feature","geometry":{"type":"Point","coordinates":[85.0738355,28.5058567]},"properties":{"name":"Tsum Monastery","tradition":"buddhist","denomination":"tibetan","addr:city":"Lamagaun","country_code":"np"}},{"type":"Feature","geometry":{"type":"Point","coordinates":[85.4331372,27.6724881]},"properties":{"name":"Stupa","tradition":"buddhist","country_code":"np"}},{"type":"Feature","geometry":{"type":"Point","coordinates":[85.343908,28.1094868]},"properties":{"name":"Buddhist Stupa","tradition":"buddhist","country_code":"np"}},{"type":"Feature","geometry":{"type":"Point","coordinates":[87.0465904,27.1731942]},"properties":{"name":"Buddhathan","tradition":"buddhist","country_code":"np"}},{"type":"Feature","geometry":{"type":"Point","coordinates":[84.1332441,28.6463017]},"properties":{"name":"Stupa","tradition":"buddhist","denomination":"buddhist","country_code":"np"}},{"type":"Feature","geometry":{"type":"Point","coordinates":[85.4010366,27.5482456]},"properties":{"name":"Konjyosom Pratima","tradition":"buddhist","country_code":"np"}},{"type":"Feature","geometry":{"type":"Point","coordinates":[85.3630848,27.7218183]},"properties":{"name":"Tashi Samtenling Monastery","name:en":"Tashi Samtenling Monastery","tradition":"buddhist","country_code":"np"}},{"type":"Feature","geometry":{"type":"Point","coordinates":[83.8602404,28.8191511]},"properties":{"name":"chorten","tradition":"buddhist","country_code":"np"}},{"type":"Feature","geometry":{"type":"Point","coordinates":[85.4808642,27.0227644]},"properties":{"name":"थारपालिंग गुम्बा","name:en":"Tharpaling Gumba","tradition":"buddhist","country_code":"np"}},{"type":"Feature","geometry":{"type":"Point","coordinates":[85.4868131,27.0142797]},"properties":{"name":"ऊ बुद्ध सदन गुम्बा","name:en":"Om Buddha Sadan Gumba","tradition":"buddhist","country_code":"np"}},{"type":"Feature","geometry":{"type":"Point","coordinates":[85.4841825,27.0105385]},"properties":{"name":"अमिता गुम्बा","name:en":"Amita Gumba","tradition":"buddhist","country_code":"np"}},{"type":"Feature","geometry":{"type":"Point","coordinates":[85.0274019,28.4845269]},"properties":{"name":"Chorten","tradition":"buddhist","country_code":"np"}},{"type":"Feature","geometry":{"type":"Point","coordinates":[83.9580172,28.6762575]},"properties":{"name":"Prayer wheels","tradition":"buddhist","country_code":"np"}},{"type":"Feature","geometry":{"type":"Point","coordinates":[83.9582314,28.6766381]},"properties":{"name":"Flags","tradition":"buddhist","country_code":"np"}},{"type":"Feature","geometry":{"type":"Point","coordinates":[83.9608988,28.2187574]},"properties":{"name":"Prayer wheel","tradition":"buddhist","country_code":"np"}},{"type":"Feature","geometry":{"type":"Point","coordinates":[85.3854429,27.7394434]},"properties":{"name":"hollow stupa temple","tradition":"buddhist","country_code":"np"}},{"type":"Feature","geometry":{"type":"Point","coordinates":[83.4890155,27.6502684]},"properties":{"name":"Vishow Sukha Shanti Buddha Bihar","tradition":"buddhist","country_code":"np"}},{"type":"Feature","geometry":{"type":"Point","coordinates":[84.9618474,28.47336]},"properties":{"name":"Stupa","tradition":"buddhist","country_code":"np"}},{"type":"Feature","geometry":{"type":"Point","coordinates":[84.9618315,28.4733903]},"properties":{"name":"Stupa","tradition":"buddhist","country_code":"np"}},{"type":"Feature","geometry":{"type":"Point","coordinates":[84.9618208,28.4734316]},"properties":{"name":"Stupa","tradition":"buddhist","country_code":"np"}},{"type":"Feature","geometry":{"type":"Point","coordinates":[85.2814623,27.7288949]},"properties":{"name":"Triten Norbutse bompo Monastery","tradition":"buddhist","country_code":"np"}},{"type":"Feature","geometry":{"type":"Point","coordinates":[85.719752,27.5295681]},"properties":{"name":"Gelong Phug","tradition":"buddhist","country_code":"np"}},{"type":"Feature","geometry":{"type":"Point","coordinates":[85.3600775,27.7209388]},"properties":{"name":"Sherpa Monastery","tradition":"buddhist","addr:city":"Kathmandu","addr:postcode":"44602","country_code":"np"}},{"type":"Feature","geometry":{"type":"Point","coordinates":[85.3620441,27.7214431]},"properties":{"name":"Boudhanāth Stupa","tradition":"buddhist","addr:street":"Boudha Main Road","addr:postcode":"977","country_code":"np","phone":"+977 01 4471908","website":"http://boudhanathstupa.org/#_home"}},{"type":"Feature","geometry":{"type":"Point","coordinates":[85.3102176,27.7066737]},"properties":{"name":"Janma Dyo","tradition":"buddhist","country_code":"np"}},{"type":"Feature","geometry":{"type":"Point","coordinates":[85.3458765,27.7158751]},"properties":{"name":"Chabahil Stupa","tradition":"buddhist","country_code":"np"}},{"type":"Feature","geometry":{"type":"Point","coordinates":[85.360799,27.724446]},"properties":{"name":"Shechen Gompa","tradition":"buddhist","country_code":"np"}},{"type":"Feature","geometry":{"type":"Point","coordinates":[85.2907377,27.7151597]},"properties":{"name":"Karmaraja Mahavihar","tradition":"buddhist","country_code":"np"}},{"type":"Feature","geometry":{"type":"Point","coordinates":[85.2905803,27.7149854]},"properties":{"name":"Pratappur Shikhara","tradition":"buddhist","country_code":"np"}},{"type":"Feature","geometry":{"type":"Point","coordinates":[85.3233277,27.6649314]},"properties":{"name":"Lagankhel Ashok Stupa","tradition":"buddhist","country_code":"np"}},{"type":"Feature","geometry":{"type":"Point","coordinates":[85.32055,27.6761182]},"properties":{"name":"अशोक स्तूपा","name:en":"Ashok Stupa","tradition":"buddhist","country_code":"np"}},{"type":"Feature","geometry":{"type":"Point","coordinates":[85.3148953,27.6776774]},"properties":{"name":"अक्षेश्वर महाविहार","name:en":"Aksheshwor Mahabihar","tradition":"buddhist","country_code":"np"}},{"type":"Feature","geometry":{"type":"Point","coordinates":[85.3262409,27.7136178]},"properties":{"name":"Sankha Kriti Maha Bihar","tradition":"buddhist","country_code":"np"}},{"type":"Feature","geometry":{"type":"Point","coordinates":[85.3097956,27.7095489]},"properties":{"name":"Shri Ghaa Bihar","tradition":"buddhist","country_code":"np"}},{"type":"Feature","geometry":{"type":"Point","coordinates":[85.3358712,27.6653937]},"properties":{"name":"Ashok Stupa","tradition":"buddhist","country_code":"np"}},{"type":"Feature","geometry":{"type":"Point","coordinates":[85.3138038,27.7137552]},"properties":{"name":"Tridevi Temple","tradition":"buddhist","addr:city":"Kathmandu","country_code":"np"}},{"type":"Feature","geometry":{"type":"Point","coordinates":[85.4292964,27.671953]},"properties":{"name":"Ta Dhi Chhen","tradition":"buddhist","country_code":"np"}},{"type":"Feature","geometry":{"type":"Point","coordinates":[85.3275704,27.6771592]},"properties":{"name":"Ashok Stupa","tradition":"buddhist","country_code":"np"}},{"type":"Feature","geometry":{"type":"Point","coordinates":[85.3275766,27.6771392]},"properties":{"name":"Northern Ashok Stupa","tradition":"buddhist","country_code":"np"}},{"type":"Feature","geometry":{"type":"Point","coordinates":[85.3160291,27.6771895]},"properties":{"name":"चारुमती स्तुप","name:en":"Charumati Stupa","tradition":"buddhist","country_code":"np"}},{"type":"Feature","geometry":{"type":"Point","coordinates":[85.5059832,27.6543848]},"properties":{"name":"Nala Karunamaya","tradition":"buddhist","country_code":"np"}},{"type":"Feature","geometry":{"type":"Point","coordinates":[85.3179535,27.7051491]},"properties":{"name":"Dharma Chakra Vihar","tradition":"buddhist","country_code":"np"}},{"type":"Feature","geometry":{"type":"Point","coordinates":[85.290391,27.714931]},"properties":{"name":"Swayambhunath","tradition":"buddhist","country_code":"np"}},{"type":"Feature","geometry":{"type":"Point","coordinates":[85.3124894,27.7155654]},"properties":{"name":"Bhagwan bahal","tradition":"buddhist","country_code":"np"}},{"type":"Feature","geometry":{"type":"Point","coordinates":[86.1716428,28.1157534]},"properties":{"name":"Chöra Gepel Ling","tradition":"buddhist","country_code":"np"}},{"type":"Feature","geometry":{"type":"Point","coordinates":[85.3299727,27.6834154]},"properties":{"name":"International Buddhist Meditation Center","tradition":"buddhist","country_code":"np"}},{"type":"Feature","geometry":{"type":"Point","coordinates":[84.0073013,28.2164989]},"properties":{"name":"Matepani Monasetry","tradition":"buddhist","addr:street":"Matepani","addr:city":"Pokhara Lekhnath Metropolitian City","country_code":"np"}},{"type":"Feature","geometry":{"type":"Point","coordinates":[85.3642414,27.7425421]},"properties":{"name":"Kopan Main Gumba","tradition":"buddhist","country_code":"np","website":"https://np.geoview.info/kapan_gumba,1877601181n"}},{"type":"Feature","geometry":{"type":"Point","coordinates":[85.3637209,27.7420855]},"properties":{"name":"Chenrezig Gompa","tradition":"buddhist","country_code":"np"}},{"type":"Feature","geometry":{"type":"Point","coordinates":[85.3816777,27.7832986]},"properties":{"name":"Nagi Gompa","tradition":"buddhist","country_code":"np"}},{"type":"Feature","geometry":{"type":"Point","coordinates":[85.3592639,27.7232779]},"properties":{"name":"Barom Gompa","tradition":"buddhist","denomination":"barom_kagyu","country_code":"np"}},{"type":"Feature","geometry":{"type":"Point","coordinates":[85.3622358,27.72605]},"properties":{"name":"Bero Khyentse Gompa","tradition":"buddhist","denomination":"kagyu","country_code":"np"}},{"type":"Feature","geometry":{"type":"Point","coordinates":[85.3624916,27.7218988]},"properties":{"name":"Old Dhabzang","tradition":"buddhist","denomination":"kagyu","country_code":"np"}},{"type":"Feature","geometry":{"type":"Point","coordinates":[85.5208406,27.6334926]},"properties":{"name":"Wasinkhyah Bahi Baha (वासिंख्यः बहि बहाः) - 𑐰𑐵𑐳𑐶𑑄𑐏‍𑑂𑐫𑑅 𑐧𑐴𑐶 𑐧𑐴𑐵𑑅","tradition":"buddhist","country_code":"np"}},{"type":"Feature","geometry":{"type":"Point","coordinates":[85.3611155,27.7214821]},"properties":{"name":"Sakya Maitreya Lhakang","tradition":"buddhist","denomination":"sakya","country_code":"np"}},{"type":"Feature","geometry":{"type":"Point","coordinates":[85.3584149,27.7216982]},"properties":{"name":"Lama Wangdu","tradition":"buddhist","country_code":"np","website":"https://lamawangdu.org/"}},{"type":"Feature","geometry":{"type":"Point","coordinates":[85.2803761,27.6773404]},"properties":{"name":"DakshinKaliMata Temple","tradition":"buddhist","country_code":"np"}},{"type":"Feature","geometry":{"type":"Point","coordinates":[85.3657001,27.7368089]},"properties":{"name":"Kopan Nunnery","tradition":"buddhist","addr:city":"Kathmandu","country_code":"np"}},{"type":"Feature","geometry":{"type":"Point","coordinates":[85.3279043,27.6747717]},"properties":{"name":"Chika Bahi","tradition":"buddhist","country_code":"np"}},{"type":"Feature","geometry":{"type":"Point","coordinates":[85.3270087,27.6736025]},"properties":{"name":"Wam Bahal","tradition":"buddhist","denomination":"bahal","country_code":"np"}},{"type":"Feature","geometry":{"type":"Point","coordinates":[85.5194403,27.6295132]},"properties":{"name":"Bodhicharya Bihar","tradition":"buddhist","country_code":"np"}},{"type":"Feature","geometry":{"type":"Point","coordinates":[85.3204222,27.7036365]},"properties":{"name":"बुद्ध विहार","name:en":"Buddha Bihar","tradition":"buddhist","country_code":"np"}},{"type":"Feature","geometry":{"type":"Point","coordinates":[85.2813542,27.7168081]},"properties":{"name":"Karmalegsheling Gumba","tradition":"buddhist","country_code":"np"}},{"type":"Feature","geometry":{"type":"Point","coordinates":[83.8703958,28.8155382]},"properties":{"name":"Dhola Mebar Gompa","tradition":"buddhist","country_code":"np"}},{"type":"Feature","geometry":{"type":"Point","coordinates":[83.6860754,28.7535625]},"properties":{"name":"Monastery","tradition":"buddhist","country_code":"np"}},{"type":"Feature","geometry":{"type":"Point","coordinates":[83.989651,28.2462158]},"properties":{"name":"Baudha Gumba","tradition":"buddhist","country_code":"np"}},{"type":"Feature","geometry":{"type":"Point","coordinates":[85.4228815,27.671817]},"properties":{"name":"Kuthu Bahi","tradition":"buddhist","country_code":"np"}},{"type":"Feature","geometry":{"type":"Point","coordinates":[83.9847722,28.2375237]},"properties":{"name":"Baudha Bihar","tradition":"buddhist","country_code":"np"}},{"type":"Feature","geometry":{"type":"Point","coordinates":[83.0986201,29.4955094]},"properties":{"name":"Yangtser Gompa","tradition":"buddhist","denomination":"bon","country_code":"np"}},{"type":"Feature","geometry":{"type":"Point","coordinates":[82.9545327,29.3660361]},"properties":{"name":"Tsakhang Gompa","tradition":"buddhist","denomination":"tibetan","country_code":"np","website":"https://www.jamgonkongtrul.org/section.php?s1=2&s2=7"}},{"type":"Feature","geometry":{"type":"Point","coordinates":[83.0736146,29.4245746]},"properties":{"name":"Saldang Gompa","tradition":"buddhist","denomination":"bon","country_code":"np"}},{"type":"Feature","geometry":{"type":"Point","coordinates":[84.6951865,28.5737028]},"properties":{"name:en":"Monastery of Lho","tradition":"buddhist","country_code":"np"}},{"type":"Feature","geometry":{"type":"Point","coordinates":[85.2748148,27.7180669]},"properties":{"name":"Karma Lekshey Ling","tradition":"buddhist","country_code":"np"}},{"type":"Feature","geometry":{"type":"Point","coordinates":[85.2722956,27.6828798]},"properties":{"name":"Gompa","tradition":"buddhist","country_code":"np"}},{"type":"Feature","geometry":{"type":"Point","coordinates":[85.2765388,27.7181465]},"properties":{"name":"Tergar Osel Ling Gompa","tradition":"buddhist","country_code":"np"}},{"type":"Feature","geometry":{"type":"Point","coordinates":[85.3191729,27.6301946]},"properties":{"name":"Boudha jana Bihar","tradition":"buddhist","country_code":"np"}},{"type":"Feature","geometry":{"type":"Point","coordinates":[83.0326456,28.8996534]},"properties":{"name":"Chhedhul Gompa","tradition":"buddhist","country_code":"np"}},{"type":"Feature","geometry":{"type":"Point","coordinates":[85.5653771,28.2139717]},"properties":{"name":"Nimakpa Monastery","tradition":"buddhist","denomination":"tibetan","country_code":"np"}},{"type":"Feature","geometry":{"type":"Point","coordinates":[87.2625334,26.4519291]},"properties":{"name":"Buddha Temple","tradition":"buddhist","country_code":"np"}},{"type":"Feature","geometry":{"type":"Point","coordinates":[85.2877187,27.7159406]},"properties":{"name":"मंजुश्री","tradition":"buddhist","country_code":"np"}},{"type":"Feature","geometry":{"type":"Point","coordinates":[85.2904118,27.715647]},"properties":{"name":"शान्तिपुर Shantipur Mahabihar (SKY)","name:en":"Shantipur maha Bihar","tradition":"buddhist","country_code":"np"}},{"type":"Feature","geometry":{"type":"Point","coordinates":[88.0671785,27.0311401]},"properties":{"name":"Mani wall","tradition":"buddhist","country_code":"np"}},{"type":"Feature","geometry":{"type":"Point","coordinates":[88.016151,27.0773927]},"properties":{"name":"Mani wall","tradition":"buddhist","country_code":"np"}},{"type":"Feature","geometry":{"type":"Point","coordinates":[83.8666474,28.819819]},"properties":{"name":"Tharpa Choeling Nunnery","tradition":"buddhist","denomination":"tibetan","country_code":"np","website":"https://muktinath.org/muktinath/othergompas/index.html"}},{"type":"Feature","geometry":{"type":"Point","coordinates":[85.3122865,27.7057969]},"properties":{"name":"Madha Boudha Stupa","tradition":"buddhist","country_code":"np"}},{"type":"Feature","geometry":{"type":"Point","coordinates":[85.327191,27.6033391]},"properties":{"name":"Bajrabarahi gumba","tradition":"buddhist","country_code":"np"}},{"type":"Feature","geometry":{"type":"Point","coordinates":[85.3907177,27.6923716]},"properties":{"name":"Gumba","tradition":"buddhist","addr:city":"Bhaktapur","country_code":"np"}},{"type":"Feature","geometry":{"type":"Point","coordinates":[85.3382893,27.711301]},"properties":{"name":"Pipali Therbad Buddha Bihar","tradition":"buddhist","country_code":"np"}},{"type":"Feature","geometry":{"type":"Point","coordinates":[85.3476341,27.7291311]},"properties":{"name":"Nama Buddha","tradition":"buddhist","country_code":"np"}},{"type":"Feature","geometry":{"type":"Point","coordinates":[84.0391465,28.6371579]},"properties":{"name":"Milarepas Cave","tradition":"buddhist","country_code":"np"}},{"type":"Feature","geometry":{"type":"Point","coordinates":[85.3646516,27.7427968]},"properties":{"name":"Big Prayer Wheel","tradition":"buddhist","country_code":"np"}},{"type":"Feature","geometry":{"type":"Point","coordinates":[85.2815657,27.6750177]},"properties":{"name":"Nagar Mandap Shree Kirti Bihar","tradition":"buddhist","country_code":"np"}},{"type":"Feature","geometry":{"type":"Point","coordinates":[85.291229,27.6720965]},"properties":{"name":"Sulachhyan Kirti Bihar","tradition":"buddhist","country_code":"np"}},{"type":"Feature","geometry":{"type":"Point","coordinates":[85.2780485,27.6780867]},"properties":{"name":"चिर्थु विहार","name:en":"Chirthu Bihar","tradition":"buddhist","country_code":"np"}},{"type":"Feature","geometry":{"type":"Point","coordinates":[85.2772022,27.6785571]},"properties":{"name":"Triratna Kirti Bihar","tradition":"buddhist","country_code":"np"}},{"type":"Feature","geometry":{"type":"Point","coordinates":[85.2773035,27.6767401]},"properties":{"name":"पद्माकीर्ति विहार (कुशी बाहा )","name:en":"Padmakirti Vihar (Kushi Baha )","tradition":"buddhist","country_code":"np"}},{"type":"Feature","geometry":{"type":"Point","coordinates":[84.4405023,27.7022617]},"properties":{"name":"Tinkhole Ghumba","tradition":"buddhist","addr:street":"Bypass Road","addr:city":"Narayangarh","country_code":"np"}},{"type":"Feature","geometry":{"type":"Point","coordinates":[85.3241558,27.6744585]},"properties":{"name":"Dhuga Bihar","tradition":"buddhist","country_code":"np"}},{"type":"Feature","geometry":{"type":"Point","coordinates":[84.8140159,27.528142]},"properties":{"name":"gumba","tradition":"buddhist","country_code":"np"}},{"type":"Feature","geometry":{"type":"Point","coordinates":[85.2912805,27.6658347]},"properties":{"name":"Kachhyapal Mahabihar","tradition":"buddhist","country_code":"np"}},{"type":"Feature","geometry":{"type":"Point","coordinates":[84.8377209,27.5023441]},"properties":{"name":"Jyamire Gumba","tradition":"buddhist","country_code":"np"}},{"type":"Feature","geometry":{"type":"Point","coordinates":[84.5092264,27.6980866]},"properties":{"name":"Gumba","tradition":"buddhist","country_code":"np"}},{"type":"Feature","geometry":{"type":"Point","coordinates":[84.6727743,28.5741464]},"properties":{"name":"big prayer mill","tradition":"buddhist","country_code":"np"}},{"type":"Feature","geometry":{"type":"Point","coordinates":[84.6764766,28.5737212]},"properties":{"name":"Gompa","tradition":"buddhist","country_code":"np"}},{"type":"Feature","geometry":{"type":"Point","coordinates":[84.3706311,28.2331107]},"properties":{"name":"Gumbaa","tradition":"buddhist","country_code":"np"}},{"type":"Feature","geometry":{"type":"Point","coordinates":[85.2581942,27.6125726]},"properties":{"name":"Benchen Shedra","tradition":"buddhist","country_code":"np"}},