{"type":"FeatureCollection","features":[{"type":"Feature","geometry":{"type":"Point","coordinates":[16.8993102,52.3783914]},"properties":{"name":"Buddyjski Ośrodek Medytacyjny Linii Karma Kagyu","tradition":"buddhist","denomination":"karma_kagyu","addr:street":"Maszynowa","addr:housenumber":"21","addr:city":"Poznań","addr:postcode":"61-483","country_code":"pl","website":"https://www.poznan.buddyzm.pl/"}},{"type":"Feature","geometry":{"type":"Point","coordinates":[20.0037791,52.763677]},"properties":{"name":"Stupa Cudów","tradition":"buddhist","country_code":"pl"}},{"type":"Feature","geometry":{"type":"Point","coordinates":[14.5414224,53.4309356]},"properties":{"name":"Buddyjski Ośrodek Medytacyjny Linii Karma Kagyu Szczecin","tradition":"buddhist","denomination":"karma_kagyu","country_code":"pl"}},{"type":"Feature","geometry":{"type":"Point","coordinates":[18.5454164,50.0966207]},"properties":{"name":"Buddyjski Ośrodek Medytacyjny","tradition":"buddhist","denomination":"karma_kagyu","addr:street":"Stanisława Staszica","addr:housenumber":"6","addr:city":"Rybnik","addr:postcode":"44-200","country_code":"pl","phone":"+48507034172","website":"http://www.buddyzm.rybnik.pl/"}},{"type":"Feature","geometry":{"type":"Point","coordinates":[19.9401492,50.0524803]},"properties":{"name":"Krakowski Ośrodek Zen","tradition":"buddhist","denomination":"zen","addr:street":"Stradomska","addr:housenumber":"17/4","addr:city":"Kraków","addr:postcode":"31-068","country_code":"pl","phone":"+48 12 376 7485","website":"https://www.zen.pl/krakow/"}},{"type":"Feature","geometry":{"type":"Point","coordinates":[16.9298488,52.3999744]},"properties":{"name":"Engakuin – świątynia Zen, świątynia buddyjska","tradition":"buddhist","addr:street":"Królowej Jadwigi","addr:housenumber":"54/8","addr:city":"Poznań","addr:postcode":"61-873","country_code":"pl","website":"http://engakuin.net/"}},{"type":"Feature","geometry":{"type":"Point","coordinates":[19.9411331,50.0506398]},"properties":{"name":"Sanghaloka","tradition":"buddhist","denomination":"triratna","country_code":"pl","phone":"+48570159500","website":"https://www.buddyzm.info.pl/medytacja-i-buddyzm-w-krakowie/"}},{"type":"Feature","geometry":{"type":"Point","coordinates":[19.984485,50.0199615]},"properties":{"name":"Buddyjski Ośrodek Medytacyjny","tradition":"buddhist","addr:street":"Wojciecha Stattlera","addr:housenumber":"5","addr:city":"Kraków","addr:postcode":"30-666","country_code":"pl","website":"https://krakow.buddyzm.pl/"}},{"type":"Feature","geometry":{"type":"Point","coordinates":[22.0079248,50.0390172]},"properties":{"name":"Buddyjski Ośrodek Medytacyjny","tradition":"buddhist","addr:street":"Plac Wolności","addr:housenumber":"2","addr:city":"Rzeszów","addr:postcode":"35-002","country_code":"pl","website":"http://rzeszow.buddyzm.pl/"}},{"type":"Feature","geometry":{"type":"Point","coordinates":[18.975919,50.2322142]},"properties":{"name":"Buddyjski Ośrodek Medytacyjny","tradition":"buddhist","denomination":"vajrayana","country_code":"pl","phone":"+48 512 429 429","website":"https://www.katowice.buddyzm.pl/"}},{"type":"Feature","geometry":{"type":"Point","coordinates":[19.1283647,50.2770848]},"properties":{"name":"Buddyjski Ośrodek Medytacyjny","tradition":"buddhist","addr:street":"Modrzejowska","addr:housenumber":"12/5","addr:city":"Sosnowiec","addr:postcode":"41-200","country_code":"pl","website":"http://sosnowiec.buddyzm.pl/"}},{"type":"Feature","geometry":{"type":"Point","coordinates":[18.6252787,50.3422212]},"properties":{"name":"Buddyjski Ośrodek Medytacyjny","tradition":"buddhist","addr:street":"Wolności","addr:housenumber":"1a","addr:city":"Gliwice","addr:postcode":"44-109","country_code":"pl","website":"http://www.gliwice.buddyzm.pl/"}},{"type":"Feature","geometry":{"type":"Point","coordinates":[18.9146845,50.3440561]},"properties":{"name":"Buddyjski Ośrodek Medytacyjny","tradition":"buddhist","addr:street":"Plac Michała Wolskiego","addr:housenumber":"2a","addr:city":"Bytom","addr:postcode":"41-902","country_code":"pl","website":"http://www.bytom.buddyzm.pl/"}},{"type":"Feature","geometry":{"type":"Point","coordinates":[18.2070628,50.3455976]},"properties":{"name":"Buddyjski Ośrodek Medytacyjny","tradition":"buddhist","addr:street":"Aleksandra Głowackiego","addr:housenumber":"9A/1","addr:city":"Kędzierzyn-Koźle","addr:postcode":"47-220","country_code":"pl","website":"http://www.kedzierzyn-kozle.buddyzm.pl/"}},{"type":"Feature","geometry":{"type":"Point","coordinates":[22.0520103,50.5677905]},"properties":{"name":"Buddyjski Ośrodek Medytacyjny","tradition":"buddhist","addr:street":"Romana Dmowskiego","addr:housenumber":"11/1","addr:city":"Stalowa Wola","addr:postcode":"37-450","country_code":"pl","website":"http://stalowawola.buddyzm.pl/"}},{"type":"Feature","geometry":{"type":"Point","coordinates":[21.9823871,50.0356387]},"properties":{"name":"Szkoła Zen Kwan Um","tradition":"buddhist","denomination":"zen","addr:street":"Janusza Korczaka","addr:housenumber":"4/69","addr:city":"Rzeszów","addr:postcode":"35-114","country_code":"pl","website":"https://www.zen.pl/rzeszow"}},{"type":"Feature","geometry":{"type":"Point","coordinates":[14.5444207,53.4306711]},"properties":{"name":"Sanboin - świątynia buddyjska","name:en":"Sanboin - buddhist temple in Szczecin","tradition":"buddhist","denomination":"zen","country_code":"pl"}},{"type":"Feature","geometry":{"type":"Point","coordinates":[18.9685332,50.2274747]},"properties":{"name":"Katowicki Ośrodek Zen Szkoły Kwan Um","tradition":"buddhist","denomination":"zen","country_code":"pl","website":"https://www.zen.pl/katowice/;https://www.zen.pl"}},{"type":"Feature","geometry":{"type":"Point","coordinates":[16.3290081,50.4470048]},"properties":{"name":"Stupa","tradition":"buddhist","denomination":"tibetan","country_code":"pl","phone":"+48 601 357 776"}},{"type":"Feature","geometry":{"type":"Point","coordinates":[20.8775344,52.0704174]},"properties":{"name":"Chùa Nhân Hoà","tradition":"buddhist","country_code":"pl"}},{"type":"Feature","geometry":{"type":"Point","coordinates":[17.9187457,50.6647689]},"properties":{"name":"Buddyjski Ośrodek Medytacyjny Diamentowej Drogi","tradition":"buddhist","country_code":"pl","website":"https://www.facebook.com/BOMOPOLE"}},{"type":"Feature","geometry":{"type":"Point","coordinates":[18.5869635,54.4213208]},"properties":{"name":"Ośrodek Buddyjski Karma Kagyu","tradition":"buddhist","denomination":"karma_kagyu","country_code":"pl","website":"https://gdansk.buddyzm.pl/"}},{"type":"Feature","geometry":{"type":"Point","coordinates":[21.020204,52.1758427]},"properties":{"name":"Bukkoin","tradition":"buddhist","denomination":"zen","country_code":"pl"}},{"type":"Feature","geometry":{"type":"Point","coordinates":[21.1974455,52.1621046]},"properties":{"name":"Wu Bong Sah","tradition":"buddhist","denomination":"zen","country_code":"pl","website":"https://zen.pl/"}},{"type":"Feature","geometry":{"type":"Point","coordinates":[20.0042837,52.7628834]},"properties":{"name":"Buddyjski Ośrodek Medytacyjny w Kucharach","name:en":"Buddhist Retreat Center Kuchary","tradition":"buddhist","addr:housenumber":"57","addr:postcode":"09-210","country_code":"pl","phone":"+48 24 260 10 56","website":"https://www.kuchary.pl/"}},{"type":"Feature","geometry":{"type":"Point","coordinates":[20.9520333,52.2462355]},"properties":{"name":"Buddyjski Ośrodek Medytacyjny Stupa House","tradition":"buddhist","denomination":"karma_kagyu","country_code":"pl"}},{"type":"Feature","geometry":{"type":"Point","coordinates":[20.5411509,52.1137146]},"properties":{"name":"Lhakang Dzinlab Trinpung - Świątynia Chmur Błogosławieństw","tradition":"buddhist","country_code":"pl"}},{"type":"Feature","geometry":{"type":"Point","coordinates":[20.542276,52.1124303]},"properties":{"name":"Miejsce Odosobnień Jasnego Światła Bencien","tradition":"buddhist","denomination":"tibetan","country_code":"pl"}},{"type":"Feature","geometry":{"type":"Point","coordinates":[17.3316082,54.1758919]},"properties":{"name":"Buddyjski Ośrodek Odosobnieniowy Diamentowej Drogi Chotkowo","tradition":"buddhist","addr:housenumber":"44","addr:postcode":"77-141","country_code":"pl","website":"https://chotkowo.buddyzm.pl"}},{"type":"Feature","geometry":{"type":"Point","coordinates":[16.6336227,50.1655621]},"properties":{"name":"Buddyjski Ośrodek Odosobnieniowy Diamentowej Drogi w Nagodzicach","tradition":"buddhist","denomination":"karma_kagyu","country_code":"pl","phone":"+48748125018","website":"nagodzice.buddyzm.pl"}}]}